id,observed_on,species_common,species_scientific,latitude,longitude,place_guess,quality_grade,native,introduced,threatened
364321214,2026-05-22,Indiscriminate Cuckoo Bumble Bee,Bombus insularis,34.785755,-118.997475,"Los Padres National Forest, Frazier Park, CA, US",research,True,False,False
364240532,2026-05-22,Western Honey Bee,Apis mellifera,34.4593861111,-117.291358333,"Hesperia, CA, USA",research,False,True,False
364194244,2026-05-20,California Bumble Bee,Bombus californicus,34.1491843503,-118.961194755,"Ventura County, CA, USA",research,True,False,False
364179274,2026-05-21,Yellow-faced Bumble Bee,Bombus vosnesenskii,33.0435348013,-116.642474577,"San Diego County, CA, USA",research,True,False,False
364179210,2026-05-21,Urbane Digger Bee,Anthophora urbana,33.0429980591,-116.652908985,"San Diego County, CA, USA",research,True,False,False
364166636,2026-05-19,Western Honey Bee,Apis mellifera,33.5315575681,-117.71068401,"Laguna Niguel, CA, USA",research,False,True,False
364165678,2026-05-19,Yellow-faced Bumble Bee,Bombus vosnesenskii,33.531480574,-117.710737889,"Laguna Niguel, CA, USA",research,True,False,False
364163520,2026-05-22,Western Honey Bee,Apis mellifera,33.5914849756,-116.441490279,"Santa Rosa and San Jacinto Mountains National Monument, Mountain Center, CA, US",research,False,True,False
364163428,2026-05-21,Arizona Small carpenter,Ceratina arizonensis,33.0172572831,-116.708666775,"San Diego County, CA, USA",research,False,False,False
364163413,2026-05-21,Oval-headed Sweat Bee,Lasioglossum ovaliceps,33.0172572831,-116.708666775,"San Diego County, CA, USA",research,True,False,False
364153829,2026-05-21,Crotch's Bumble Bee,Bombus crotchii,34.2201,-118.7963,"Proposed Cosca Trail, Thousand Oaks, CA, US",research,True,False,True
364148053,2026-05-22,Western Honey Bee,Apis mellifera,33.9545166667,-117.306428333,"Harvard Way, Riverside, CA, US",research,False,True,False
364138575,2026-05-22,Western Honey Bee,Apis mellifera,33.00243055,-117.235466667,"San Dieguito County Park, Del Mar, CA, US",research,False,True,False
364135760,2026-05-22,Western Honey Bee,Apis mellifera,33.5533722997,-117.7192265,"Alicia-Aliso Creek, Laguna Niguel, CA 92677, USA",research,False,True,False
364125084,2026-05-22,Crotch's Bumble Bee,Bombus crotchii,34.3054726283,-118.908284739,"California, US",research,True,False,True
364112901,2026-05-22,Tripartite Sweat Bee,Halictus tripartitus,34.419915,-119.7251618,"1914 Robbins St, Santa Barbara, CA 93101, USA",research,True,False,False
364103126,2026-05-22,Western Honey Bee,Apis mellifera,33.6128281191,-117.804234417,"Turtle Ridge, Irvine, CA 92603, USA",research,False,True,False
364097419,2026-05-22,Western Honey Bee,Apis mellifera,33.62945822,-117.807780198,"Turtle Rock, Irvine, CA, USA",research,False,True,False
364090262,2026-05-22,Western Honey Bee,Apis mellifera,33.0202516667,-117.10328,"4S Ranch, San Diego, CA 92127, USA",research,False,True,False
364089959,2026-05-22,Western Honey Bee,Apis mellifera,33.821379069,-117.774104364,"Orange, CA 92869, USA",research,False,True,False
364085717,2026-05-22,Western Honey Bee,Apis mellifera,33.8166384715,-117.76685603,"Orange, CA 92869, USA",research,False,True,False
364082957,2026-05-20,Western Honey Bee,Apis mellifera,34.3110620696,-118.514234719,"Los Angeles County, US-CA, US",research,False,True,False
364081998,2026-05-19,Yellow-faced Bumble Bee,Bombus vosnesenskii,32.7466716667,-117.234855,"Banning St, San Diego, CA, US",research,True,False,False
364074835,2026-05-22,California Bumble Bee,Bombus californicus,34.4217866667,-119.882866667,"Pacific Coast Dr, Goleta, CA, US",research,True,False,False
364063032,2026-05-22,Yellow-faced Bumble Bee,Bombus vosnesenskii,34.0743267441,-118.45493496,"Westwood, Los Angeles, CA, USA",research,True,False,False
364060833,2026-05-22,Western Honey Bee,Apis mellifera,32.9341829,-117.0459999,"Poway, CA, USA",research,False,True,False
364053702,2026-05-21,Western Honey Bee,Apis mellifera,34.01775,-118.467888333,"20th St, Santa Monica, CA, US",research,False,True,False
364040857,2026-05-22,Western Honey Bee,Apis mellifera,33.9797866667,-118.347663333,"North Park, Inglewood, CA, US",research,False,True,False
364040548,2026-05-05,Western Honey Bee,Apis mellifera,32.739375,-117.134147167,"28th St, San Diego, CA, US",research,False,True,False
364035235,2026-05-22,Western Honey Bee,Apis mellifera,34.1976816,-119.1774639,"Oxnard, CA, USA",research,False,True,False
364016730,2026-05-22,Yellow-faced Bumble Bee,Bombus vosnesenskii,32.7708055556,-116.953741667,"Casa De Oro-Mount Helix, CA, USA",research,True,False,False
363979716,2026-05-21,California Digger-cuckoo Bee,Brachymelecta californica,34.300775,-119.198228333,"Ventura Hillsides, Ventura, CA, US",research,True,False,False
363978310,2026-05-21,Crotch's Bumble Bee,Bombus crotchii,35.0872945,-119.718566667,"Carrizo Plain National Monument, San Luis Obispo County, US-CA, US",research,True,False,True
363905719,2026-05-20,Fine striped sweat bee,Agapostemon subtilior,33.0857526593,-117.253862709,"Nueva Castilla Way, Carlsbad, CA, US",research,True,False,False
363903478,2026-05-20,Western Honey Bee,Apis mellifera,32.6789722222,-116.822805556,"Jamul, CA 91935, USA",research,False,True,False
363893352,2026-05-20,Western Honey Bee,Apis mellifera,32.6895111111,-116.816230556,"Jamul, CA 91935, USA",research,False,True,False
363887329,2026-05-21,Bindweed Turret Bee,Diadasia bituberculata,34.1762825605,-119.03677769,"Ventura County, CA, USA",research,True,False,False
363883798,2024-04-23,Western Honey Bee,Apis mellifera,33.7047466667,-118.022566667,"Collie Ln, Huntington Beach, CA, US",research,False,True,False
363870762,2026-05-10,Tripartite Sweat Bee,Halictus tripartitus,34.4055966667,-119.8441,"UCSB Campus Point, Goleta, CA, US",research,True,False,False
363866521,2026-05-21,Yellow-faced Bumble Bee,Bombus vosnesenskii,35.3081277778,-120.661869444,"16B, San Luis Obispo, CA 93407, USA",research,True,False,False
363861376,2026-05-21,Western Honey Bee,Apis mellifera,33.0167364,-117.1115111,"4S Ranch, San Diego, CA 92127, USA",research,False,True,False
363861071,2026-03-23,Valley Carpenter Bee,Xylocopa sonorina,34.4201916667,-119.858605,"Goleta, CA, US",research,True,False,False
363857737,2026-05-10,Fine striped sweat bee,Agapostemon subtilior,34.4055633333,-119.8441,"UCSB Campus Point, Goleta, CA, US",research,True,False,False
363857514,2026-05-10,Fine striped sweat bee,Agapostemon subtilior,34.405575,-119.845475,"UCSB Campus Point, Goleta, CA, US",research,True,False,False
363857259,2026-05-20,Black-tailed Bumble Bee,Bombus melanopygus,32.8948466667,-116.503355,"Cleveland National Forest, Descanso, CA, US",research,True,False,False
363851627,2026-05-21,Fine striped sweat bee,Agapostemon subtilior,33.7167151,-118.31506,"White Point Nature Education Center and Preserve, 1600 W Paseo Del Mar, San Pedro, CA 90731, USA",research,True,False,False
363850934,2026-05-21,California Bumble Bee,Bombus californicus,34.2954918167,-118.92648823,"California, US",research,True,False,False
363850917,2026-05-21,Yellow-faced Bumble Bee,Bombus vosnesenskii,34.3319450933,-118.879139058,"California, US",research,True,False,False
363850915,2026-05-21,California Bumble Bee,Bombus californicus,34.2047519492,-118.858814395,"California, US",research,True,False,False
363850913,2026-05-21,Crotch's Bumble Bee,Bombus crotchii,34.3060957081,-118.946213738,"California, US",research,True,False,True
363850911,2026-05-21,California Bumble Bee,Bombus californicus,34.392412844,-118.836515009,"California, US",research,True,False,False
363850909,2026-05-21,California Bumble Bee,Bombus californicus,34.360818862,-118.893930686,"California, US",research,True,False,False
363850679,2026-05-21,Western Honey Bee,Apis mellifera,33.58441351,-117.732111562,"Aliso Viejo, CA, USA",research,False,True,False
363850077,2026-05-21,Crotch's Bumble Bee,Bombus crotchii,33.72183,-116.902405,"Hemet, CA, US",research,True,False,True
363848208,2026-05-21,Yellow-faced Bumble Bee,Bombus vosnesenskii,32.7608450315,-116.998571889,"Casa De Oro-Mount Helix, CA, USA",research,True,False,False
363844761,2026-05-18,Crotch's Bumble Bee,Bombus crotchii,33.8854721882,-118.093025242,"Norwalk, CA, US",research,True,False,True
363837388,2026-05-21,Western Honey Bee,Apis mellifera,32.711535068,-117.126056632,"Market St, San Diego, CA, US",research,False,True,False
363834725,2026-05-20,Sonoran Bumble Bee,Bombus sonorus,33.9692833333,-118.423988333,"Ballona Discovery Park, Los Angeles, CA, US",research,True,False,True
363829253,2026-05-21,Western Honey Bee,Apis mellifera,34.0246,-118.414741667,"Glendon Ave, Los Angeles, CA, US",research,False,True,False
363824615,2026-05-21,California Bumble Bee,Bombus californicus,34.3113833333,-119.198158333,"Ventura Hillsides, Ventura, CA, US",research,True,False,False
363823863,2026-05-21,Clarkia Evening Bee,Hesperapis regularis,34.238508,-118.359018,10459 Tuxford St,research,True,False,False
363823748,2026-05-21,Western Honey Bee,Apis mellifera,34.1678967787,-118.353786325,"Los Angeles County, US-CA, US",research,False,True,False
363823628,2026-05-21,Ligated Furrow Bee,Halictus ligatus,34.4107819886,-119.733422316,"Elings Park, Santa Barbara, CA, USA",research,True,False,False
363814810,2026-05-21,Valley Carpenter Bee,Xylocopa sonorina,34.1477388333,-118.426103333,"Greenbush Ave, Los Angeles, CA, US",research,True,False,False
363814661,2026-05-21,Western Honey Bee,Apis mellifera,34.1113388333,-118.270661667,"Ettrick St, Los Angeles, CA, US",research,False,True,False
363805566,2026-05-21,Ligated Furrow Bee,Halictus ligatus,32.8267216667,-117.0668945,"Mission Trails Regional Park, San Diego, CA, US",research,True,False,False
363800718,2026-05-21,Ligated Furrow Bee,Halictus ligatus,32.828455,-117.068322167,"Mission Trails Regional Park, San Diego, CA, US",research,True,False,False
363798728,2026-05-21,Ligated Furrow Bee,Halictus ligatus,32.828655,-117.068458333,"Mission Trails Regional Park, San Diego, CA, US",research,True,False,False
363798678,2026-05-20,Black-tailed Bumble Bee,Bombus melanopygus,32.8939216667,-116.496871667,"Cleveland National Forest, Descanso, CA, US",research,True,False,False
363798211,2026-05-20,Black-tailed Bumble Bee,Bombus melanopygus,32.89358,-116.496483333,"Cleveland National Forest, Descanso, CA, US",research,True,False,False
363797326,2026-05-21,Ligated Furrow Bee,Halictus ligatus,32.82845,-117.068313833,"Mission Trails Regional Park, San Diego, CA, US",research,True,False,False
363795709,2026-05-20,Black-tailed Bumble Bee,Bombus melanopygus,32.8935866667,-116.496461667,"Cleveland National Forest, Descanso, CA, US",research,True,False,False
363790658,2026-05-21,Rhus Fairy Bee,Perdita rhois,32.8247716667,-117.0718695,"Mission Trails Regional Park, San Diego, CA, US",research,True,False,False
363787230,2026-04-02,Western Honey Bee,Apis mellifera,33.9682883333,-117.374245,"Commerce St, Riverside, CA, US",research,False,True,False
363785604,2026-05-21,Wide-striped Sweat Bee,Halictus farinosus,34.9530163658,-120.435719378,"Broadway at Town Center West, Santa Maria, CA 93458, USA",research,True,False,False
363782305,2026-05-21,Ligated Furrow Bee,Halictus ligatus,32.8231416667,-117.078338833,"Mission Trails Regional Park, San Diego, CA, US",research,True,False,False
363782158,2026-05-20,Black-tailed Bumble Bee,Bombus melanopygus,32.892525,-116.492133333,"Cleveland National Forest, Descanso, CA, US",research,True,False,False
363775177,2026-05-17,Black-tailed Bumble Bee,Bombus melanopygus,32.9381533333,-116.585411667,"Fir Trail, Julian, CA, US",research,True,False,False
363774172,2026-05-11,Yellow-faced Bumble Bee,Bombus vosnesenskii,34.2277,-118.8552,"Northwood Field, Thousand Oaks, CA, US",research,True,False,False
363773721,2026-05-21,Peridot Sweat Bee,Augochlorella pomoniella,32.8217966667,-117.01489,"Santee, CA, USA",research,True,False,False
363773680,2026-05-21,Rhus Fairy Bee,Perdita rhois,32.8204566667,-117.011513333,"Santee, CA, USA",research,True,False,False
363770586,2026-05-10,Crotch's Bumble Bee,Bombus crotchii,35.4575486997,-118.0691108,"Kern County, CA, USA",research,True,False,True
363769029,2026-05-13,Crotch's Bumble Bee,Bombus crotchii,35.4625770997,-118.0709139,"Kern County, CA, USA",research,True,False,True
363763840,2026-05-10,Prunus Miner Bee,Andrena prunorum,33.9521476793,-117.264064436,"Moreno Valley, CA, USA",research,True,False,False
363758187,2026-05-21,Sonoran Bumble Bee,Bombus sonorus,33.8931283333,-117.97587,"Ralph B. Clark Regional Park, Fullerton, CA, US",research,True,False,True
363755421,2026-05-21,Fine striped sweat bee,Agapostemon subtilior,32.8238388889,-117.023161111,"Lake Murray, San Diego, CA, USA",research,True,False,False
363743978,2026-04-26,Western Honey Bee,Apis mellifera,33.6781523,-117.1607991,"La Piedra + Bayport, Menifee, CA 92584, USA",research,False,True,False
363740238,2026-05-18,Crotch's Bumble Bee,Bombus crotchii,35.1558805189,-118.085713357,"Kern County, US-CA, US",research,True,False,True
363739240,2026-05-21,Valley Carpenter Bee,Xylocopa sonorina,34.1121833333,-118.180396667,"Thorne St, Los Angeles, CA, US",research,True,False,False
363731650,2026-04-10,Western Honey Bee,Apis mellifera,34.0681030741,-118.991029467,"Deer Creek Rd, Malibu, CA, US",research,False,True,False
363722663,2026-05-20,Yellow-faced Bumble Bee,Bombus vosnesenskii,32.8942666667,-116.489288333,"Cleveland National Forest, Descanso, CA, US",research,True,False,False
363720663,2026-05-21,Tansy Mustard Sweat Bee,Lasioglossum sisymbrii,32.8453216667,-117.0458305,"Mission Trails Regional Park, San Diego, CA, US",research,True,False,False
363719849,2026-05-21,Wide-striped Sweat Bee,Halictus farinosus,34.1291028405,-118.110817794,"San Marino, CA, US",research,True,False,False
363711381,2026-05-19,Western Honey Bee,Apis mellifera,32.8576866667,-116.96997,"N Magnolia Ave, Santee, CA, US",research,False,True,False
363711309,2026-05-21,California Bumble Bee,Bombus californicus,35.37172,-120.856063333,"Morro Bay, CA, US",research,True,False,False
363700200,2026-05-21,Western Honey Bee,Apis mellifera,33.8464992167,-118.368402924,"Torrance, CA 90503, USA",research,False,True,False
363689289,2026-05-20,Black-tailed Bumble Bee,Bombus melanopygus,32.8941083333,-116.489371667,"Cleveland National Forest, Descanso, CA, US",research,True,False,False
363684263,2026-05-20,Black-tailed Bumble Bee,Bombus melanopygus,32.8937616667,-116.489441667,"Cleveland National Forest, Descanso, CA, US",research,True,False,False
363684159,2026-05-01,Yellow-faced Bumble Bee,Bombus vosnesenskii,32.7389,-117.165922222,"Bankers Hill, San Diego, Californie, États-Unis",research,True,False,False
363684154,2026-05-01,California Digger Bee,Anthophora californica,32.7524097661,-117.228792475,"Point Loma Heights, San Diego, CA, États-Unis",research,True,False,False
363683807,2026-05-21,Valley Carpenter Bee,Xylocopa sonorina,34.1811718466,-118.278984446,"W Mountain St, Glendale, CA, US",research,True,False,False
363668336,2026-05-18,Western Honey Bee,Apis mellifera,35.1356059387,-118.189307467,"Kern County, US-CA, US",research,False,True,False
363666995,2026-05-20,Nomad Bees,Nomada,32.8939466667,-116.489425,"Cleveland National Forest, Descanso, CA, US",research,False,False,False
363663573,2026-02-23,Western Honey Bee,Apis mellifera,34.3830833458,-119.486121667,"Rincon Beach Park, Carpinteria, CA, US",research,False,True,False
363661496,2026-05-20,Black-tailed Bumble Bee,Bombus melanopygus,32.8969466667,-116.485755,"Cleveland National Forest, Descanso, CA, US",research,True,False,False
363616182,2026-05-18,Ligated Furrow Bee,Halictus ligatus,33.5357366667,-117.177558333,"Elm St, Murrieta, CA, US",research,True,False,False
363606782,2026-05-18,Ochraceous Chimney Bee,Diadasia ochracea,33.6325532196,-116.621472909,"Riverside County, US-CA, US",research,True,False,False
363593645,2026-05-20,Western Honey Bee,Apis mellifera,34.2225824621,-118.062757121,"San Gabriel Mountains National Monument, Pasadena, CA, US",research,False,True,False
363587461,2026-05-19,Crotch's Bumble Bee,Bombus crotchii,34.8254342813,-118.091015793,"California, US",research,True,False,True
363587460,2026-05-19,Crotch's Bumble Bee,Bombus crotchii,34.8833441168,-118.085396991,"California, US",research,True,False,True
363586519,2026-05-18,Crotch's Bumble Bee,Bombus crotchii,35.1420265847,-118.198005313,"Kern County, US-CA, US",research,True,False,True
363585870,2026-05-18,Crotch's Bumble Bee,Bombus crotchii,35.0521794651,-118.140876515,"Kern County, US-CA, US",research,True,False,True
363585040,2026-05-18,Crotch's Bumble Bee,Bombus crotchii,35.193048047,-118.021234933,"Kern County, US-CA, US",research,True,False,True
363584284,2026-05-18,Crotch's Bumble Bee,Bombus crotchii,35.0643463992,-118.042263498,"Kern County, US-CA, US",research,True,False,True
363573384,2026-05-18,Tripartite Sweat Bee,Halictus tripartitus,34.1366477208,-118.21338784,"Yosemite / Del Rosa Walk, Los Angeles, CA 90041, USA",research,True,False,False
363572987,2026-05-18,Western Honey Bee,Apis mellifera,34.1366299602,-118.21339421,"Eagle Rock / Chickasaw, Los Angeles, CA 90041, USA",research,False,True,False
363572483,2026-05-10,Tripartite Sweat Bee,Halictus tripartitus,34.287625,-119.292495,"Grant Pk Fuel Break Rd, Ventura, CA, US",research,True,False,False
363570014,2026-05-20,Western Honey Bee,Apis mellifera,34.0888812809,-118.197548288,"Montecito Heights, Los Angeles, CA, USA",research,False,True,False
363565396,2026-05-20,Van Dyke's Bumble Bee,Bombus vandykei,34.2396583333,-117.762061667,"San Gabriel Mountains National Monument, La Verne, CA, US",research,True,False,False
363563805,2026-05-20,Northern Rotund-Resin Bee,Anthidiellum notatum,34.2315139,-118.446376777,"Panorama City, Los Angeles, CA, USA",research,True,False,False
363562977,2026-05-20,Black-tailed Bumble Bee,Bombus melanopygus,32.934345,-116.482553333,"Anza-Borrego Desert State Park, Descanso, CA, US",research,True,False,False
363557237,2026-05-20,California Fairy Bee,Perdita californica,32.9198358539,-117.252496875,"La Jolla, San Diego, CA, USA",research,True,False,False
363557234,2026-05-20,California Fairy Bee,Perdita californica,32.9184647153,-117.25507503,"La Jolla, San Diego, CA, USA",research,True,False,False
363556623,2025-07-27,Western Honey Bee,Apis mellifera,33.8735850853,-118.365933874,"North Redondo, Redondo Beach, CA 90278, USA",research,False,True,False
363556178,2026-05-20,Yellow-faced Bumble Bee,Bombus vosnesenskii,34.7139535,-118.4998943,"Elizabeth Lake, CA 93532, USA",research,True,False,False
363554461,2026-05-20,Honey-tailed Striped Sweat Bee,Agapostemon melliventris,32.7956066846,-117.230470366,"Pacific Beach, San Diego, CA, USA",research,True,False,False
363553224,2026-05-20,Western Honey Bee,Apis mellifera,33.6052916667,-117.799911111,"Newport Coast, Newport Beach, CA, USA",research,False,True,False
363553113,2026-05-20,Fine striped sweat bee,Agapostemon subtilior,32.8711133333,-116.510116667,"Cleveland National Forest, Pine Valley, CA, US",research,True,False,False
363552695,2026-05-20,Tansy Mustard Sweat Bee,Lasioglossum sisymbrii,33.5663704997,-117.8214446,"Laguna Beach, CA 92651, USA",research,True,False,False
363550422,2026-05-20,Wide-striped Sweat Bee,Halictus farinosus,32.8711583333,-116.509811667,"Cleveland National Forest, Pine Valley, CA, US",research,True,False,False
363546737,2026-05-20,Crotch's Bumble Bee,Bombus crotchii,35.6404716667,-120.667861667,"Montebello Oaks Dr, Paso Robles, CA, US",research,True,False,True
363546327,2026-05-13,Western Honey Bee,Apis mellifera,32.6862283,-117.0500016,"Paradise Valley Rd & Potomac St, San Diego, CA 92139, USA",research,False,True,False
363546220,2026-05-13,Yellow-faced Bumble Bee,Bombus vosnesenskii,32.6862945556,-117.050102222,"Paradise Valley Rd & Potomac St, San Diego, CA 92139, USA",research,True,False,False
363545153,2026-05-19,Fine striped sweat bee,Agapostemon subtilior,33.9198503882,-117.826759812,"Discovery Center, Chino Hills State Park, Brea, CA, USA",research,True,False,False
363543724,2026-05-20,Peridot Sweat Bee,Augochlorella pomoniella,33.5468694444,-116.576022222,"Anza, CA 92539, USA",research,True,False,False
363539881,2026-05-20,Tansy Mustard Sweat Bee,Lasioglossum sisymbrii,34.1080610265,-118.415447153,"Los Angeles County, CA, USA",research,True,False,False
363537793,2023-08-03,Western Honey Bee,Apis mellifera,34.2453519722,-118.525525,"Zelzah / Superior, Los Angeles, CA 91330, USA",research,False,True,False
363537056,2023-04-25,Western Honey Bee,Apis mellifera,34.2627439706,-118.585198947,"Los Angeles County, US-CA, US",research,False,True,False
363532745,2026-05-17,Valley Carpenter Bee,Xylocopa sonorina,32.8385407802,-117.09555295,"Portobelo Dr, San Diego, CA, US",research,True,False,False
363531960,2026-05-20,Yellow-faced Bumble Bee,Bombus vosnesenskii,34.9001278041,-120.236045333,"Santa Barbara County, US-CA, US",research,True,False,False
363519389,2026-05-20,Western Honey Bee,Apis mellifera,33.6048338394,-116.439215275,"Santa Rosa and San Jacinto Mountains National Monument, Mountain Center, CA, US",research,False,True,False
363518475,2026-05-20,Western Honey Bee,Apis mellifera,34.0223888333,-118.489661667,"Santa Monica College - Performing Arts Center, Santa Monica, CA, US",research,False,True,False
363517315,2026-05-19,Western Honey Bee,Apis mellifera,32.672466581,-117.024635741,"Sweetwater Regional Park (Morrison Pond); Bonita, California",research,False,True,False
363515854,2026-05-20,Valley Carpenter Bee,Xylocopa sonorina,33.8400071062,-117.992539673,"California, US",research,True,False,False
363509790,2026-05-20,Crotch's Bumble Bee,Bombus crotchii,34.662834772,-118.417155215,"California, US",research,True,False,True
363508269,2026-05-20,Western Honey Bee,Apis mellifera,32.7524522618,-117.252767144,"Ocean Beach, San Diego, CA, USA",research,False,True,False
363505593,2026-05-20,Ligated Furrow Bee,Halictus ligatus,32.7022466667,-117.037972167,"Aquamarine Rd, San Diego, CA, US",research,True,False,False
363503223,2026-05-20,Western Honey Bee,Apis mellifera,32.7539537448,-117.252921474,"Ocean Beach, San Diego, CA, USA",research,False,True,False
363502275,2026-05-15,Globe Mallow Bee,Diadasia diminuta,34.1505758367,-118.981406653,"Newbury Park, Thousand Oaks, CA 91320, USA",research,True,False,False
363495189,2026-05-20,Western Honey Bee,Apis mellifera,34.093979884,-118.263563418,"Silver Lake Blvd, Los Angeles, CA, US",research,False,True,False
363494427,2026-05-20,Yellow-faced Bumble Bee,Bombus vosnesenskii,32.940785,-117.250876667,"Del Mar Heights, San Diego, CA 92014, USA",research,True,False,False
363493320,2026-05-16,Western Honey Bee,Apis mellifera,33.987613,-116.0144052,"XXQP+7J, Pinto Wye, CA, USA",research,False,True,False
363491882,2026-05-20,Western Honey Bee,Apis mellifera,34.0152989584,-117.449904755,"Jurupa Valley, CA 92509, USA",research,False,True,False
363490933,2026-05-11,Peridot Sweat Bee,Augochlorella pomoniella,32.9241879722,-117.257234972,"La Jolla, San Diego, CA, USA",research,True,False,False
363490733,2026-05-20,California Bumble Bee,Bombus californicus,32.8366916667,-117.074591667,"Mission Trails Regional Park, San Diego, CA, US",research,True,False,False
363488675,2026-05-11,California Bumble Bee,Bombus californicus,32.9241939167,-117.257236,"La Jolla, San Diego, CA, USA",research,True,False,False
363487431,2026-05-11,Yellow-faced Bumble Bee,Bombus vosnesenskii,32.9248189167,-117.257597944,"La Jolla, San Diego, CA, USA",research,True,False,False
363486445,2026-05-11,Yellow-faced Bumble Bee,Bombus vosnesenskii,32.9248319444,-117.257582917,"La Jolla, San Diego, CA, USA",research,True,False,False
363485712,2026-05-20,,Perdita hirticeps,32.9392666667,-117.252061667,"Del Mar Heights, San Diego, CA 92014, USA",research,True,False,False
363484888,2026-05-18,Crotch's Bumble Bee,Bombus crotchii,33.8852748889,-118.093186453,"Norwalk, CA, US",research,True,False,True
363483042,2024-11-08,Western Honey Bee,Apis mellifera,32.7215166667,-117.256936667,"Sunset Cliffs Blvd, San Diego, CA, US",research,False,True,False
363481066,2026-05-20,Western Honey Bee,Apis mellifera,32.9642966667,-117.117775,"San Diego County, US-CA, US",research,False,True,False
363481001,2026-05-20,Western Honey Bee,Apis mellifera,32.9642866667,-117.117813833,"Paseo Cevera, San Diego, CA, US",research,False,True,False
363480658,2026-05-17,Western Honey Bee,Apis mellifera,33.7031412493,-118.004863865,"Huntington Beach, CA, US",research,False,True,False
363480048,2026-05-11,Peridot Sweat Bee,Augochlorella pomoniella,32.9250969722,-117.258291972,"La Jolla, San Diego, CA, USA",research,True,False,False
363477735,2025-08-29,Fine striped sweat bee,Agapostemon subtilior,34.293066063,-119.196884137,"Harmon Canyon Road, Ventura, CA, US",research,True,False,False
363477162,2026-05-20,Yellow-faced Bumble Bee,Bombus vosnesenskii,35.1651593136,-120.481281853,"California, US",research,True,False,False
363468865,2026-05-20,Yellow-faced Bumble Bee,Bombus vosnesenskii,32.939345,-117.251915,"Del Mar Heights, San Diego, CA 92014, USA",research,True,False,False
363456077,2026-05-20,Yellow-faced Bumble Bee,Bombus vosnesenskii,33.1974833333,-117.31185,"Rancho del Oro Dr & Vista del Oro Dr, Oceanside, CA 92056, USA",research,True,False,False
363450734,2026-05-19,Western Honey Bee,Apis mellifera,32.9181500511,-116.880721696,"San Diego County, CA, USA",research,False,True,False
363450445,2026-04-17,Western Honey Bee,Apis mellifera,32.964425,-117.1176445,"Paseo Cevera, San Diego, CA, US",research,False,True,False
363445001,2026-05-18,Western Honey Bee,Apis mellifera,33.5864728997,-116.4554157,"Mountain Center, CA 92561, USA",research,False,True,False
363438681,2026-05-20,California Bumble Bee,Bombus californicus,33.5814242942,-117.613020163,Tesoro High School Fall 2023 - Spring 2024,research,True,False,False
363438404,2026-04-30,Western Honey Bee,Apis mellifera,32.919180237,-117.253973385,"La Jolla, San Diego, Californie, États-Unis",research,False,True,False
363438402,2026-04-30,Western Honey Bee,Apis mellifera,32.919071161,-117.253661971,"La Jolla, San Diego, Californie, États-Unis",research,False,True,False
363438352,2026-04-30,Western Honey Bee,Apis mellifera,32.7323821562,-117.149150532,"Balboa Park, San Diego, CA, États-Unis",research,False,True,False
363434473,2026-05-20,Western Honey Bee,Apis mellifera,33.5812624077,-117.614041853,"Tesoro Creek, Ladera Ranch, CA, US",research,False,True,False
363434009,2026-05-20,Western Honey Bee,Apis mellifera,33.5811794047,-117.614161051,"Tesoro Creek, Ladera Ranch, CA, US",research,False,True,False
363426618,2026-05-20,Western Honey Bee,Apis mellifera,33.5004944,-116.8003793,"Lake Riverside, CA 92536, USA",research,False,True,False
363421306,2026-05-20,Bindweed Turret Bee,Diadasia bituberculata,34.0857813774,-118.575952398,"Santa Ynez Canyon Trail, Los Angeles, CA, US",research,True,False,False
363415333,2026-05-19,Western Honey Bee,Apis mellifera,32.80648,-117.19203,"Clairemont, San Diego, CA, USA",research,False,True,False
363413518,2026-05-20,Western Honey Bee,Apis mellifera,33.8246601214,-118.326359826,"Crenshaw Blvd, Torrance, CA, US",research,False,True,False
363410928,2026-05-20,California Bumble Bee,Bombus californicus,33.5807616667,-117.612638333,"Tesoro Creek, Ladera Ranch, CA, US",research,True,False,False
363396341,2026-05-20,Western Honey Bee,Apis mellifera,32.9986916667,-116.90503,"Duraznitos Pl, Ramona, CA, US",research,False,True,False
363392431,2026-05-20,Western Honey Bee,Apis mellifera,33.5818607956,-117.614206342,"Tesoro Creek, Ladera Ranch, CA, US",research,False,True,False
363391365,2026-05-20,Western Honey Bee,Apis mellifera,33.4441011471,-117.088183321,"Temecula, CA, US",research,False,True,False
363390299,2026-05-20,Western Honey Bee,Apis mellifera,33.58190916,-117.61453096,"Las Flores, CA, USA",research,False,True,False
363389513,2026-05-20,Western Honey Bee,Apis mellifera,33.5812127942,-117.61425319,"Tesoro Creek, 拉的拉兰奇, CA, US",research,False,True,False
363388767,2026-05-20,Western Honey Bee,Apis mellifera,33.5812252167,-117.614014289,"Tesoro High School, Ladera Ranch, CA, US",research,False,True,False
363388435,2026-05-20,Western Honey Bee,Apis mellifera,33.5812190568,-117.614131077,"Tesoro Creek, Ladera Ranch, CA, US",research,False,True,False
363388151,2026-05-20,Western Honey Bee,Apis mellifera,33.5812105873,-117.614170523,"Tesoro Creek, Ladera Ranch, CA, US",research,False,True,False
363388116,2026-05-20,Western Honey Bee,Apis mellifera,33.58123869,-117.61415904,"Las Flores, CA, USA",research,False,True,False
363388111,2026-05-20,Western Honey Bee,Apis mellifera,33.5812067127,-117.614193443,"Tesoro Creek, Ladera Ranch, CA, US",research,False,True,False
363382989,2026-05-20,Western Honey Bee,Apis mellifera,33.6372661997,-117.8047714,"Turtle Rock, Irvine, CA, USA",research,False,True,False
363359862,2026-05-18,Western Honey Bee,Apis mellifera,33.7564769997,-115.3963258,"QJ43+WV, Desert Center, CA 92239, USA",research,False,True,False
363277695,2026-05-19,Western Honey Bee,Apis mellifera,32.9110916667,-117.1203695,"Gold Coast Dr, San Diego, CA, US",research,False,True,False
363276938,2026-03-23,Western Honey Bee,Apis mellifera,32.7692916667,-117.192361667,"Linda Vista Rd, San Diego, CA, US",research,False,True,False
363265375,2026-05-19,California Bumble Bee,Bombus californicus,34.6928067064,-120.040639713,"Santa Ynez, CA 93460, USA",research,True,False,False
363263494,2026-05-17,Western Honey Bee,Apis mellifera,34.5035977966,-120.065273546,"Santa Barbara County, CA, USA",research,False,True,False
363263054,2026-05-11,Western Honey Bee,Apis mellifera,34.404305,-118.464395,"Sierra Hwy, Santa Clarita, CA, US",research,False,True,False
363262077,2026-05-19,Horse-fly Carpenter Bee,Xylocopa tabaniformis,34.2710829076,-118.355458172,"Hansen Dam Recreation Area, Los Angeles, CA, US",research,True,False,False
363254176,2026-04-18,Western Honey Bee,Apis mellifera,33.0533361667,-117.281546667,"Saxony Ln, Encinitas, CA, US",research,False,True,False
363252306,2026-05-19,Valley Carpenter Bee,Xylocopa sonorina,33.712225,-117.989713333,"Beach Blvd, Huntington Beach, CA, US",research,True,False,False
363245988,2026-05-19,Western Honey Bee,Apis mellifera,33.531598092,-117.710456022,"Laguna Niguel, CA, USA",research,False,True,False
363242712,2026-05-19,Western Honey Bee,Apis mellifera,33.5315727788,-117.710444634,"Laguna Niguel, CA, USA",research,False,True,False
363242292,2024-10-24,Western Honey Bee,Apis mellifera,34.1243514799,-117.000606673,"California, US",research,False,True,False
363242162,2026-05-19,Western Honey Bee,Apis mellifera,33.5317179723,-117.710129817,"Laguna Niguel, CA, USA",research,False,True,False
363241876,2026-05-19,Western Honey Bee,Apis mellifera,33.5317006248,-117.710502148,"Laguna Niguel, CA, USA",research,False,True,False
363241608,2026-05-19,Western Honey Bee,Apis mellifera,33.5314678952,-117.710401931,"Laguna Niguel, CA, USA",research,False,True,False
363241179,2026-05-19,Western Honey Bee,Apis mellifera,33.5312239264,-117.710707101,"Laguna Niguel, CA, USA",research,False,True,False
363240625,2026-05-19,Yellow-faced Bumble Bee,Bombus vosnesenskii,33.531480574,-117.710637827,"Laguna Niguel, CA, USA",research,True,False,False
363239739,2026-05-19,Western Honey Bee,Apis mellifera,33.5321438453,-117.710431419,"Laguna Niguel, CA, USA",research,False,True,False
363239384,2026-05-19,Western Honey Bee,Apis mellifera,32.8423383333,-117.044472167,"San Diego, CA, US",research,False,True,False
363238457,2026-05-19,Western Honey Bee,Apis mellifera,33.5320879015,-117.71061354,"Laguna Niguel, CA, USA",research,False,True,False
363237592,2026-05-19,Western Honey Bee,Apis mellifera,33.5315383196,-117.710476187,"Laguna Niguel, CA, USA",research,False,True,False
363237034,2026-05-19,Yellow-faced Bumble Bee,Bombus vosnesenskii,33.5314467218,-117.710393464,"Laguna Niguel, CA, USA",research,True,False,False
363236719,2026-05-19,Yellow-faced Bumble Bee,Bombus vosnesenskii,33.5314409472,-117.710391155,"Laguna Niguel, CA, USA",research,True,False,False
363236451,2026-05-19,Western Honey Bee,Apis mellifera,33.5316156705,-117.71046393,"Laguna Niguel, CA, USA",research,False,True,False
363236077,2026-05-19,Western Honey Bee,Apis mellifera,33.5315511519,-117.710399216,"Laguna Niguel, CA, USA",research,False,True,False
363235763,2026-05-19,Western Honey Bee,Apis mellifera,33.5315198662,-117.710422713,"Laguna Niguel, CA, USA",research,False,True,False
363235350,2026-05-19,Yellow-faced Bumble Bee,Bombus vosnesenskii,33.5317006248,-117.710502148,"Laguna Niguel, CA, USA",research,True,False,False
363219688,2025-03-09,Western Honey Bee,Apis mellifera,34.0782986754,-118.114298248,"Los Angeles County, US-CA, US",research,False,True,False
363209805,2026-05-19,Western Honey Bee,Apis mellifera,32.870695,-117.252495,"Biological Grade, San Diego, CA, US",research,False,True,False
363209529,2026-05-19,Western Honey Bee,Apis mellifera,32.8711466667,-117.252083333,"Biological Grade, San Diego, CA, US",research,False,True,False
363205390,2026-05-19,Valley Carpenter Bee,Xylocopa sonorina,34.1567389663,-118.129230363,"Los Angeles County, US-CA, US",research,True,False,False
363204098,2026-05-19,Yellow-faced Bumble Bee,Bombus vosnesenskii,34.1676633333,-117.888261667,"San Gabriel Mountains National Monument, Azusa, CA, US",research,True,False,False
363200110,2026-05-18,Western Honey Bee,Apis mellifera,32.768125,-117.178086667,"San Diego, CA, US",research,False,True,False
363200000,2026-05-19,Western Honey Bee,Apis mellifera,33.4736445935,-117.869572386,"California, US",research,False,True,False
363190693,2026-05-18,Ligated Furrow Bee,Halictus ligatus,34.4309783333,-119.8135,"Mentor Dr, Goleta, CA, US",research,True,False,False
363182773,2026-05-19,Clarkia Evening Bee,Hesperapis regularis,34.0903411117,-118.654010555,"Los Angeles County, CA, USA",research,True,False,False
363182616,2026-05-19,Yellow-faced Bumble Bee,Bombus vosnesenskii,34.3873283333,-119.49752,"Carpinteria Ave, Carpinteria, CA, US",research,True,False,False
363181032,2026-05-19,Western Honey Bee,Apis mellifera,33.6019949731,-116.440586468,"Santa Rosa and San Jacinto Mountains National Monument, Mountain Center, CA, US",research,False,True,False
363179029,2026-05-17,Yellow-faced Bumble Bee,Bombus vosnesenskii,32.7469859038,-117.234826475,"Point Loma Heights, San Diego, CA, USA",research,True,False,False
363178958,2026-05-17,Yellow-faced Bumble Bee,Bombus vosnesenskii,32.7469859038,-117.234826475,"Point Loma Heights, San Diego, CA, USA",research,True,False,False
363178955,2026-05-17,Western Honey Bee,Apis mellifera,32.7469859038,-117.234826475,"Point Loma Heights, San Diego, CA, USA",research,False,True,False
363177812,2026-05-19,Ligated Furrow Bee,Halictus ligatus,32.5539346853,-117.092117887,"Tijuana River Valley, San Diego, CA, USA",research,True,False,False
363177807,2026-05-19,Ligated Furrow Bee,Halictus ligatus,32.5539346853,-117.092117887,"Tijuana River Valley, San Diego, CA, USA",research,True,False,False
363175137,2026-05-19,Lotus Fairy Bee,Perdita trisignata,34.1007108333,-118.655954167,"Los Angeles County, CA, USA",research,True,False,False
363172371,2026-05-17,Western Honey Bee,Apis mellifera,33.6532269528,-117.75395561,"Alton Pkwy @ Pacifica IB, Irvine, CA 92618, USA",research,False,True,False
363166250,2026-05-19,Yellow-faced Bumble Bee,Bombus vosnesenskii,32.732595,-117.1470195,"Balboa Park, San Diego, CA, US",research,True,False,False
363147155,2026-05-19,Western Honey Bee,Apis mellifera,32.7756029732,-117.198408097,"Bay Park, San Diego, CA, USA",research,False,True,False
363143244,2026-05-19,Western Honey Bee,Apis mellifera,34.0201945,-118.465928333,"23rd St, Santa Monica, CA, US",research,False,True,False
363141772,2026-05-17,Valley Carpenter Bee,Xylocopa sonorina,33.997075,-118.445844444,"Venice Blvd & Walgrove Ave, Los Angeles, CA 90066, USA",research,True,False,False
363140334,2026-05-18,Valley Carpenter Bee,Xylocopa sonorina,34.1900633333,-118.308571667,"E Harvard Rd, Burbank, CA, US",research,True,False,False
363139082,2026-05-19,Western Honey Bee,Apis mellifera,32.964295,-117.117675,"Paseo Cevera, San Diego, CA, US",research,False,True,False
363135595,2026-05-19,Ligated Furrow Bee,Halictus ligatus,32.8229866667,-117.075608333,"Mission Trails Regional Park, San Diego, CA, US",research,True,False,False
363133820,2026-05-19,Yellow-faced Bumble Bee,Bombus vosnesenskii,33.7160327533,-118.296053874,"W 36th St, Los Angeles, CA, US",research,True,False,False
363132517,2026-05-19,Ligated Furrow Bee,Halictus ligatus,32.822995,-117.075613833,"Mission Trails Regional Park, San Diego, CA, US",research,True,False,False
363127718,2026-05-19,Ligated Furrow Bee,Halictus ligatus,32.8226583333,-117.077888833,"Mission Trails Regional Park, San Diego, CA, US",research,True,False,False
363121761,2026-05-18,California Fairy Bee,Perdita californica,33.5851919997,-116.4556656,"Mountain Center, CA 92561, USA",research,True,False,False
363120859,2026-05-18,California Fairy Bee,Perdita californica,33.5852228997,-116.4557064,"Mountain Center, CA 92561, USA",research,True,False,False
363115902,2026-05-18,California Fairy Bee,Perdita californica,33.5852228997,-116.4557064,"Mountain Center, CA 92561, USA",research,True,False,False
363102738,2026-05-15,Western Honey Bee,Apis mellifera,33.6722389158,-117.71251351,"Cadence, Irvine, CA, US",research,False,True,False
363084087,2026-05-19,California Bumble Bee,Bombus californicus,34.8582916667,-120.31842,"Santa Maria, CA, US",research,True,False,False
363083373,2026-05-19,Black-tailed Bumble Bee,Bombus melanopygus,34.8579616667,-120.318428333,"Santa Maria, CA, US",research,True,False,False
363083164,2026-05-19,Western Honey Bee,Apis mellifera,32.6277161448,-117.05853425,"Chula Vista, CA 91911, USA",research,False,True,False
363082242,2026-05-19,Western Honey Bee,Apis mellifera,35.32916677,-120.83125113,"Baywood-Los Osos, CA, USA",research,False,True,False
363080173,2026-05-19,Western Honey Bee,Apis mellifera,35.32909403,-120.83124256,"San Luis Obispo County, US-CA, US",research,False,True,False
363079003,2026-05-17,California Fairy Bee,Perdita californica,33.6646645701,-116.643613445,"California, US",research,True,False,False
363074589,2026-05-17,Ochraceous Chimney Bee,Diadasia ochracea,33.7305579625,-116.668014389,"Riverside County, US-CA, US",research,True,False,False
363045426,2026-05-19,Horse-fly Carpenter Bee,Xylocopa tabaniformis,34.0982183605,-118.208499119,"Glenalbyn Dr, Los Angeles, CA, US",research,True,False,False
363045256,2026-04-26,Clarkia Evening Bee,Hesperapis regularis,35.47963,-120.329011667,"Shell Creek Rd, Shandon, CA, US",research,True,False,False
363026803,2026-05-18,Western Honey Bee,Apis mellifera,33.8983404859,-117.507403028,"Corona, CA, USA",research,False,True,False
362987974,2026-05-17,Crotch's Bumble Bee,Bombus crotchii,33.785981658,-118.184183236,"California, US",research,True,False,True
362982477,2026-05-06,Yellow-faced Bumble Bee,Bombus vosnesenskii,34.621115712,-119.947646985,"Santa Barbara County, CA, USA",research,True,False,False
362982476,2026-05-18,California Bumble Bee,Bombus californicus,34.620727233,-119.947990308,"Santa Barbara County, CA, USA",research,True,False,False
362982474,2026-05-18,Black-tailed Bumble Bee,Bombus melanopygus,34.6205712761,-119.948027985,Mile-or-more Cyn,research,True,False,False
362973869,2026-05-18,Crotch's Bumble Bee,Bombus crotchii,35.098501536,-118.070713034,"Kern County, US-CA, US",research,True,False,True
362973868,2026-05-18,Crotch's Bumble Bee,Bombus crotchii,35.1201705707,-118.02302309,"Kern County, US-CA, US",research,True,False,True
362966152,2026-05-17,Western Honey Bee,Apis mellifera,32.7468805556,-117.235116667,"Voltaire St & Mendocino Bl, San Diego, CA 92107, USA",research,False,True,False
362961282,2026-05-18,Yellow-faced Bumble Bee,Bombus vosnesenskii,34.2779255891,-118.031261552,"Los Angeles County, CA, USA",research,True,False,False
362959158,2026-05-17,Yellow-faced Bumble Bee,Bombus vosnesenskii,32.7466583333,-117.234905556,"Voltaire St & Mendocino Bl, San Diego, CA 92107, USA",research,True,False,False
362955833,2026-05-17,California Bumble Bee,Bombus californicus,34.3434653152,-118.541554939,"East & Rice Canyons, 23801 The Old Rd, Newhall, CA 91321, USA",research,True,False,False
362954551,2026-05-18,Tripartite Sweat Bee,Halictus tripartitus,32.7956370816,-117.230595207,"Pacific Beach, San Diego, CA, USA",research,True,False,False
362954520,2026-05-18,Tripartite Sweat Bee,Halictus tripartitus,32.7956691359,-117.230453543,"Pacific Beach, San Diego, CA, USA",research,True,False,False
362953984,2026-05-18,Peridot Sweat Bee,Augochlorella pomoniella,32.6746277778,-116.970769444,"San Diego County, CA, USA",research,True,False,False
362953486,2025-05-19,Peridot Sweat Bee,Augochlorella pomoniella,32.6746829266,-117.240075309,"Point Loma, San Diego, CA, USA",research,True,False,False
362953468,2025-05-19,Short Sun-digger Bee,Anthophora curta,32.6746829266,-117.240075309,"Point Loma, San Diego, CA, USA",research,True,False,False
362953424,2025-05-19,,Ceratina acantha,32.6746829266,-117.240075309,"Point Loma, San Diego, CA, USA",research,True,False,False
362953417,2025-05-19,,Ceratina acantha,32.6746829266,-117.240075309,"Point Loma, San Diego, CA, USA",research,True,False,False
362953189,2026-05-18,Western Honey Bee,Apis mellifera,32.9212883333,-117.257813333,"Torrey Pines State Natural Reserve, San Diego, CA, US",research,False,True,False
362950661,2026-05-17,Western Honey Bee,Apis mellifera,32.7468268421,-117.235021591,"Voltaire St & Mendocino Bl, San Diego, CA 92107, USA",research,False,True,False
362949936,2026-05-17,Fine striped sweat bee,Agapostemon subtilior,32.7462377623,-117.23418776,"Voltaire St & Mendocino St, San Diego, CA 92107, USA",research,True,False,False
362949546,2026-05-18,Western Honey Bee,Apis mellifera,33.0967265475,-116.995419797,"San Diego, CA, US",research,False,True,False
362949428,2026-05-18,Western Honey Bee,Apis mellifera,33.0978236105,-116.996339316,"San Diego, CA, US",research,False,True,False
362947545,2026-05-17,Western Honey Bee,Apis mellifera,33.6132861997,-116.4724025,"Palm Springs, CA 92264, USA",research,False,True,False
362946912,2026-05-18,California Fairy Bee,Perdita californica,32.8789966667,-117.00971945,"San Diego, CA, US",research,True,False,False
362946301,2026-05-18,Foothill Carpenter Bee,Xylocopa tabaniformis orpifex,35.3549563271,-118.943862319,"Oakridge, Bakersfield, CA 93307, USA",research,True,False,False
362943910,2026-05-16,Wide-striped Sweat Bee,Halictus farinosus,34.2325,-118.8485,"Corte Cancion, Thousand Oaks, CA, US",research,True,False,False
362938057,2026-05-16,Valley Carpenter Bee,Xylocopa sonorina,34.417525,-119.652138333,"Butterfly Beach to East Beach Rte, Santa Barbara, CA, US",research,True,False,False
362936441,2026-05-18,Yellow-faced Bumble Bee,Bombus vosnesenskii,32.9613383333,-117.0535445,"Carriage Rd, Poway, CA, US",research,True,False,False
362936407,2026-05-17,Yellow-faced Bumble Bee,Bombus vosnesenskii,32.7466638889,-117.234941667,"Voltaire St & Mendocino Bl, San Diego, CA 92107, USA",research,True,False,False
362929658,2026-05-17,Western Honey Bee,Apis mellifera,34.2013799512,-118.210377994,"La Cañada Flintridge, CA, US",research,False,True,False
362919263,2026-05-18,Yellow-faced Bumble Bee,Bombus vosnesenskii,33.1563165359,-117.271064904,"Ocean Hills, Oceanside, CA, USA",research,True,False,False
362919236,2026-05-18,Yellow-faced Bumble Bee,Bombus vosnesenskii,33.1557666389,-117.283408333,"Carlsbad, CA, USA",research,True,False,False
362919235,2026-05-18,Yellow-faced Bumble Bee,Bombus vosnesenskii,33.1552892729,-117.285994497,"Carlsbad, CA, USA",research,True,False,False
362918617,2025-08-26,Fine striped sweat bee,Agapostemon subtilior,32.6717077341,-117.240872635,"Point Loma, San Diego, CA, USA",research,True,False,False
362918613,2025-08-26,Peridot Sweat Bee,Augochlorella pomoniella,32.6717077341,-117.240872635,"Point Loma, San Diego, CA, USA",research,True,False,False
362918609,2025-08-26,Peridot Sweat Bee,Augochlorella pomoniella,32.6717077341,-117.240872635,"Point Loma, San Diego, CA, USA",research,True,False,False
362918608,2025-08-26,Peridot Sweat Bee,Augochlorella pomoniella,32.6717077341,-117.240872635,"Point Loma, San Diego, CA, USA",research,True,False,False
362918589,2025-08-26,Rhus Fairy Bee,Perdita rhois,32.6748274224,-117.239433816,"Point Loma, San Diego, CA, USA",research,True,False,False
362918588,2025-08-26,Peridot Sweat Bee,Augochlorella pomoniella,32.6748274224,-117.239433816,"Point Loma, San Diego, CA, USA",research,True,False,False
362918570,2025-08-26,Fine striped sweat bee,Agapostemon subtilior,32.6748274224,-117.239433816,"Point Loma, San Diego, CA, USA",research,True,False,False
362914013,2026-05-18,,Centris rhodopus,34.8725083333,-117.020666667,"Barstow, CA, USA",research,False,False,False
362913194,2026-05-18,Valley Carpenter Bee,Xylocopa sonorina,34.8725916667,-117.020363889,"Barstow, CA, USA",research,True,False,False
362910920,2026-05-18,Valley Carpenter Bee,Xylocopa sonorina,33.9008178501,-118.119783524,"Lindale St, Bellflower, CA, US",research,True,False,False
362910317,2026-05-18,Western Honey Bee,Apis mellifera,32.668728205,-117.24439323,"Point Loma, San Diego, CA, USA",research,False,True,False
362907296,2026-05-18,Western Honey Bee,Apis mellifera,32.5739566667,-117.125275,"Tijuana River National Estuarine Research Reserve; San Diego, California",research,False,True,False
362902482,2026-05-18,Western Honey Bee,Apis mellifera,34.1776283333,-118.472038333,"Sepulveda Basin Wildlife Reserve, Los Angeles, CA, US",research,False,True,False
362901233,2026-05-18,Yellow-faced Bumble Bee,Bombus vosnesenskii,34.4231333333,-119.8908,"Goleta, CA, US",research,True,False,False
362899057,2026-05-18,Western Honey Bee,Apis mellifera,34.43758,-119.738166667,"McCaw Ave, Santa Barbara, CA, US",research,False,True,False
362898637,2026-05-18,Western Honey Bee,Apis mellifera,34.5456137812,-118.758203561,"Los Angeles County, US-CA, US",research,False,True,False
362894033,2026-05-18,California Bumble Bee,Bombus californicus,32.8289089075,-116.857109003,"Harbison Canyon, CA, USA",research,True,False,False
362893113,2026-05-18,Western Honey Bee,Apis mellifera,32.6711083267,-117.24462354,"Point Loma, San Diego, CA, USA",research,False,True,False
362889835,2026-05-18,Valley Carpenter Bee,Xylocopa sonorina,33.8831416667,-118.32512,"Redondo Beach Blvd, Torrance, CA, US",research,True,False,False
362887692,2026-05-18,Valley Carpenter Bee,Xylocopa sonorina,34.2316203438,-118.446446516,"Panorama City, Los Angeles, CA, USA",research,True,False,False
362884817,2026-05-18,Yellow-faced Bumble Bee,Bombus vosnesenskii,32.6733248178,-117.240343094,"Point Loma, San Diego, CA, USA",research,True,False,False
362879826,2026-05-18,Valley Carpenter Bee,Xylocopa sonorina,34.1286611667,-118.636636667,"Old Topanga Canyon Rd, Calabasas, CA, US",research,True,False,False
362875655,2023-05-23,Western Honey Bee,Apis mellifera,33.8801562745,-115.949365195,"Riverside County, CA, USA",research,False,True,False
362875640,2026-05-18,Sonoran Bumble Bee,Bombus sonorus,33.749836951,-118.099176513,"Gum Grove Park, Seal Beach, CA, US",research,True,False,True
362875161,2026-05-18,Western Honey Bee,Apis mellifera,32.5740624495,-117.125447079,"Tijuana River National Estuarine Research Reserve; San Diego, California",research,False,True,False
362873453,2026-05-18,Western Honey Bee,Apis mellifera,32.80648,-117.19203,"Clairemont, San Diego, CA, USA",research,False,True,False
362872721,2026-05-18,Yellow-faced Bumble Bee,Bombus vosnesenskii,33.0528221667,-117.083808333,"San Diego, CA, US",research,True,False,False
362859664,2026-05-18,Ligated Furrow Bee,Halictus ligatus,32.8392133333,-117.034325,"Mission Trails Regional Park, San Diego, CA, US",research,True,False,False
362858565,2026-05-16,California Bumble Bee,Bombus californicus,35.3582466667,-120.738808333,"San Luis Obispo, CA, US",research,True,False,False
362856622,2026-05-18,Western Honey Bee,Apis mellifera,35.2951786536,-120.65197546,"Hays St, San Luis Obispo, CA, US",research,False,True,False
362849884,2026-05-18,Valley Carpenter Bee,Xylocopa sonorina,34.128786748,-118.112445558,"San Marino, CA, US",research,True,False,False
362848688,2026-05-18,Yellow-faced Bumble Bee,Bombus vosnesenskii,32.87743,-117.23935,"Mandeville Ln, San Diego, CA, US",research,True,False,False
362843999,2026-05-18,Ligated Furrow Bee,Halictus ligatus,32.8426083333,-117.032927833,"Mission Trails Regional Park, San Diego, CA, US",research,True,False,False
362822996,2026-05-18,Western Honey Bee,Apis mellifera,32.9339647964,-117.127729509,"Polaris Dr, San Diego, CA, US",research,False,True,False
362796314,2020-07-22,Crotch's Bumble Bee,Bombus crotchii,33.9136533333,-116.914199944,"Riverside County, CA, USA",research,True,False,True
362783776,2026-05-18,Crotch's Bumble Bee,Bombus crotchii,35.0931605725,-118.137531779,"Kern County, US-CA, US",research,True,False,True
362783280,2026-05-18,Crotch's Bumble Bee,Bombus crotchii,35.0809463689,-118.103090887,"Kern County, US-CA, US",research,True,False,True
362782464,2026-05-18,Yellow-faced Bumble Bee,Bombus vosnesenskii,35.0525376968,-118.082903065,"Kern County, US-CA, US",research,True,False,False
362766352,2026-05-17,Western Honey Bee,Apis mellifera,33.6581309,-117.857303,"Fairchild-Ent 19701 FDA, Irvine, CA 92612, USA",research,False,True,False
362763295,2026-05-17,Yellow-faced Bumble Bee,Bombus vosnesenskii,33.6580963997,-117.8573726,"Fairchild-Ent 19701 FDA, Irvine, CA 92612, USA",research,True,False,False
362761953,2026-05-17,California Bumble Bee,Bombus californicus,33.6580472111,-117.857367172,"Fairchild-Ent 19701 FDA, Irvine, CA 92612, USA",research,True,False,False
362755561,2026-04-18,Crotch's Bumble Bee,Bombus crotchii,34.4046745349,-119.302317181,"Rio Via, Oak View, CA, US",research,True,False,True
362653614,2026-05-15,Western Honey Bee,Apis mellifera,32.8171565997,-117.0568645,"San Diego, CA 92119, USA",research,False,True,False
362648978,2022-07-09,Suave Nomad Bee,Nomada suavis,34.1221721,-118.2652174,"Los Feliz / Brunswick, Los Angeles, CA 90039, USA",research,False,False,False
362648478,2026-05-17,Western Honey Bee,Apis mellifera,32.76395,-117.000213888,"Golondrina Dr, La Mesa, CA, US",research,False,True,False
362648473,2026-05-14,Western Honey Bee,Apis mellifera,34.4160122527,-119.868262907,"El Colegio Rd, Goleta, CA, US",research,False,True,False
362647883,2026-05-16,Sonoran Bumble Bee,Bombus sonorus,33.7081566858,-117.802354371,"Orange County, US-CA, US",research,True,False,True
362647341,2022-07-10,Rhus Fairy Bee,Perdita rhois,34.1221965,-118.2651577,"Los Feliz / Brunswick, Los Angeles, CA 90039, USA",research,True,False,False
362644076,2026-05-17,Tripartite Sweat Bee,Halictus tripartitus,33.8989910481,-118.022674442,"Demanda Rd, La Mirada, CA, US",research,True,False,False
362643978,2026-05-17,Western Honey Bee,Apis mellifera,33.898922138,-118.022764414,"Demanda Rd, La Mirada, CA, US",research,False,True,False
362642447,2026-05-17,Western Honey Bee,Apis mellifera,34.2620584575,-118.630063907,"Chatsworth, Los Angeles, CA, USA",research,False,True,False
362640613,2026-05-17,California Bumble Bee,Bombus californicus,34.2594108649,-117.761977091,"Irwindale, CA 91702, USA",research,True,False,False
362637927,2026-05-17,Western Honey Bee,Apis mellifera,34.2405886323,-117.769876197,"Irwindale, CA 91702, USA",research,False,True,False
362637829,2026-05-17,Ligated Furrow Bee,Halictus ligatus,32.7473887334,-117.234908068,"Point Loma Heights, San Diego, CA, USA",research,True,False,False
362632921,2025-03-30,California Digger Bee,Anthophora californica,32.6729092003,-117.244935485,"Point Loma, San Diego, CA, USA",research,True,False,False
362632914,2025-03-30,Peridot Sweat Bee,Augochlorella pomoniella,32.6729092003,-117.244935485,"Point Loma, San Diego, CA, USA",research,True,False,False
362632905,2025-03-30,California Poppy Fairy Bee,Perdita interrupta,32.6729092003,-117.244935485,"Point Loma, San Diego, CA, USA",research,True,False,False
362632904,2025-03-30,Tansy Mustard Sweat Bee,Lasioglossum sisymbrii,32.6729092003,-117.244935485,"Point Loma, San Diego, CA, USA",research,True,False,False
362632877,2025-03-30,All-dark Miner,Andrena perimelas,32.6729092003,-117.244935485,"Point Loma, San Diego, CA, USA",research,False,False,False
362632846,2025-03-30,California Digger Bee,Anthophora californica,32.6729092003,-117.244935485,"Point Loma, San Diego, CA, USA",research,True,False,False
362632843,2025-03-30,California Digger Bee,Anthophora californica,32.6729092003,-117.244935485,"Point Loma, San Diego, CA, USA",research,True,False,False
362632817,2025-03-30,,Ceratina acantha,32.6729092003,-117.244935485,"Point Loma, San Diego, CA, USA",research,True,False,False
362632811,2025-03-30,Peridot Sweat Bee,Augochlorella pomoniella,32.6729092003,-117.244935485,"Point Loma, San Diego, CA, USA",research,True,False,False
362632810,2025-03-30,Peridot Sweat Bee,Augochlorella pomoniella,32.6729092003,-117.244935485,"Point Loma, San Diego, CA, USA",research,True,False,False
362632809,2025-03-30,Peridot Sweat Bee,Augochlorella pomoniella,32.6729092003,-117.244935485,"Point Loma, San Diego, CA, USA",research,True,False,False
362632806,2025-03-30,Peridot Sweat Bee,Augochlorella pomoniella,32.6729092003,-117.244935485,"Point Loma, San Diego, CA, USA",research,True,False,False
362632805,2025-03-30,Peridot Sweat Bee,Augochlorella pomoniella,32.6729092003,-117.244935485,"Point Loma, San Diego, CA, USA",research,True,False,False
362627501,2026-05-16,Twisted-horned Mini-digger,Anthophorula torticornis,33.0145933396,-116.712478228,"San Diego County, CA, USA",research,False,False,False
362627495,2026-05-16,Bumblebee-like Digger Bee,Anthophora bomboides,33.0145933396,-116.712478228,"San Diego County, CA, USA",research,True,False,False
362627475,2026-05-16,Tansy Mustard Sweat Bee,Lasioglossum sisymbrii,33.0145933396,-116.712478228,"San Diego County, CA, USA",research,True,False,False
362627459,2026-05-16,Tansy Mustard Sweat Bee,Lasioglossum sisymbrii,33.0145933396,-116.712478228,"San Diego County, CA, USA",research,True,False,False
362618719,2026-05-16,Crotch's Bumble Bee,Bombus crotchii,34.9138426289,-118.050296297,"California, US",research,True,False,True
362615621,2026-05-16,Crotch's Bumble Bee,Bombus crotchii,35.1844395218,-118.023523589,"Kern County, US-CA, US",research,True,False,True
362615620,2026-05-16,Crotch's Bumble Bee,Bombus crotchii,35.1839980012,-118.022017183,"Kern County, US-CA, US",research,True,False,True
362615618,2026-05-16,Crotch's Bumble Bee,Bombus crotchii,35.0637652246,-118.140216614,"Kern County, US-CA, US",research,True,False,True
362609106,2026-05-17,Tripartite Sweat Bee,Halictus tripartitus,32.7469076215,-117.234783818,"Point Loma Heights, San Diego, CA, USA",research,True,False,False
362609098,2026-05-17,California Digger Bee,Anthophora californica,32.7464471071,-117.234668954,"Point Loma Heights, San Diego, CA, USA",research,True,False,False
362609090,2026-05-17,Yellow-faced Bumble Bee,Bombus vosnesenskii,32.7464682505,-117.234681894,"Point Loma Heights, San Diego, CA, USA",research,True,False,False
362609077,2026-05-17,Yellow-faced Bumble Bee,Bombus vosnesenskii,32.7466599302,-117.234771363,"Point Loma Heights, San Diego, CA, USA",research,True,False,False
362609067,2026-05-17,Yellow-faced Bumble Bee,Bombus vosnesenskii,32.7469076215,-117.234783818,"Point Loma Heights, San Diego, CA, USA",research,True,False,False
362609062,2026-05-17,Yellow-faced Bumble Bee,Bombus vosnesenskii,32.7469076215,-117.234783818,"Point Loma Heights, San Diego, CA, USA",research,True,False,False
362601164,2026-05-17,Yellow-faced Bumble Bee,Bombus vosnesenskii,32.99015,-117.132483333,"Black Mountain Ranch, San Diego, CA, USA",research,True,False,False
362600853,2026-05-17,Yellow-faced Bumble Bee,Bombus vosnesenskii,32.8262722222,-116.996972222,"Santee, CA, USA",research,True,False,False
362599066,2026-05-17,Western Honey Bee,Apis mellifera,34.4266242981,-119.717025757,Santa Barbara,research,False,True,False
362599011,2026-05-17,Western Honey Bee,Apis mellifera,33.8164579676,-117.767473608,"Orange, CA 92869, USA",research,False,True,False
362598015,2026-05-17,Western Honey Bee,Apis mellifera,33.8193426414,-117.770748921,"Santiago Oaks Park Historic Dam, Orange, CA 92869, USA",research,False,True,False
362588808,2026-05-17,,Diadasia australis,33.8991916667,-117.945313333,"Horse Trail, Fullerton, CA, US",research,True,False,False
362588759,2026-05-17,,Diadasia australis,33.8991883333,-117.945305,"Horse Trail, Fullerton, CA, US",research,True,False,False
362588538,2026-05-17,Western Honey Bee,Apis mellifera,33.8992783333,-117.947005,"Horse Trail, Fullerton, CA, US",research,False,True,False
362586917,2026-05-17,Western Honey Bee,Apis mellifera,34.1225158668,-118.283072011,"Vista Del Valle Dr, Los Angeles, CA, US",research,False,True,False
362586251,2026-05-17,Wide-striped Sweat Bee,Halictus farinosus,34.1010499729,-118.65629518,"Los Angeles County, CA, USA",research,True,False,False
362586248,2026-05-17,California Fairy Bee,Perdita californica,34.1009711273,-118.656397104,"Los Angeles County, CA, USA",research,True,False,False
362586081,2026-05-17,Tripartite Sweat Bee,Halictus tripartitus,34.1008217979,-118.655598035,"Los Angeles County, CA, USA",research,True,False,False
362584649,2026-05-17,Ochraceous Chimney Bee,Diadasia ochracea,33.7215252671,-116.738444234,"Riverside County, US-CA, US",research,True,False,False
362583833,2026-05-17,Western Honey Bee,Apis mellifera,33.267690192,-117.368420568,"Vandegrift Blvd, Fallbrook, CA, US",research,False,True,False
362580698,2026-05-17,California Fairy Bee,Perdita californica,33.176875,-116.833036667,"Ramona, CA, US",research,True,False,False
362573616,2026-05-17,Bindweed Turret Bee,Diadasia bituberculata,34.2282393913,-118.806070872,"Simi Valley, CA, USA",research,True,False,False
362572254,2026-05-17,Western Honey Bee,Apis mellifera,34.01660555,-118.287658333,"Los Angeles, CA, US",research,False,True,False
362568909,2026-05-17,Western Honey Bee,Apis mellifera,33.9398388706,-117.376122696,"Lincoln Ave, Riverside, CA, US",research,False,True,False
362553119,2026-05-17,Western Honey Bee,Apis mellifera,34.2229539869,-118.41300488,"Sun Valley, Los Angeles, CA, USA",research,False,True,False
362548453,2026-05-17,Western Honey Bee,Apis mellifera,34.2640744096,-116.904633455,"Nature Discovery Trail, California 92314, USA",research,False,True,False
362546673,2026-05-17,Yellow-faced Bumble Bee,Bombus vosnesenskii,32.8850905706,-117.149350637,"San Diego County, US-CA, US",research,True,False,False
362546123,2026-05-17,Crotch's Bumble Bee,Bombus crotchii,32.9902679912,-117.109474226,"San Diego County, US-CA, US",research,True,False,True
362540006,2026-05-17,Ligated Furrow Bee,Halictus ligatus,32.8226783333,-117.077872167,"Mission Trails Regional Park, San Diego, CA, US",research,True,False,False
362534518,2026-05-17,Western Honey Bee,Apis mellifera,33.9327083333,-117.88897,"Driftwood Ave, Brea, CA, US",research,False,True,False
362529847,2026-05-17,Yellow-faced Bumble Bee,Bombus vosnesenskii,34.197716926,-118.859350942,"Thousand Oaks, CA 91360, USA",research,True,False,False
362527646,2026-05-17,Western Honey Bee,Apis mellifera,34.0184083333,-117.183471667,"San Timoteo Arcade Trail, Redlands, CA, US",research,False,True,False
362526436,2026-05-17,Tripartite Sweat Bee,Halictus tripartitus,32.7464831462,-117.235087299,"Banning St, San Diego, CA, US",research,True,False,False
362526237,2026-05-17,Bindweed Turret Bee,Diadasia bituberculata,34.11475,-118.554366667,"Topanga State Park, Los Angeles, CA, US",research,True,False,False
362526168,2026-05-17,Tripartite Sweat Bee,Halictus tripartitus,33.8230133333,-117.893425,"E Cortney Pl, Anaheim, CA, US",research,True,False,False
362524119,2026-05-17,Shining Mini-Digger,Anthophorula nitens,32.8228333333,-117.0766,"Mission Trails Regional Park, San Diego, CA, US",research,False,False,False
362509690,2026-05-17,Peridot Sweat Bee,Augochlorella pomoniella,32.8228416667,-117.076622167,"Mission Trails Regional Park, San Diego, CA, US",research,True,False,False
362508728,2026-05-17,Tripartite Sweat Bee,Halictus tripartitus,32.8306,-117.100211167,"Bengal Ct, San Diego, CA, US",research,True,False,False
362507531,2026-05-17,Yellow-faced Bumble Bee,Bombus vosnesenskii,32.8239583333,-117.073783333,"Mission Trails Regional Park, San Diego, CA, US",research,True,False,False
362506742,2026-05-17,Yellow-faced Bumble Bee,Bombus vosnesenskii,32.8239383333,-117.073752833,"Mission Trails Regional Park, San Diego, CA, US",research,True,False,False
362505070,2026-05-17,Western Honey Bee,Apis mellifera,33.9839962249,-117.392790882,"Loring Dr, Riverside, CA, US",research,False,True,False
362502367,2026-05-17,Western Honey Bee,Apis mellifera,33.8987971996,-118.022660682,"Demanda Rd, La Mirada, CA, US",research,False,True,False
362501502,2026-05-17,Peridot Sweat Bee,Augochlorella pomoniella,32.822845,-117.0766,"Mission Trails Regional Park, San Diego, CA, US",research,True,False,False
362501372,2026-05-17,Western Honey Bee,Apis mellifera,33.8986972863,-118.022605442,"Demanda Rd, La Mirada, CA, US",research,False,True,False
362496824,2026-05-17,Black-tailed Bumble Bee,Bombus melanopygus,32.9451737235,-117.158670836,"San Diego County, US-CA, US",research,True,False,False
362495937,2026-05-17,Tripartite Sweat Bee,Halictus tripartitus,32.7852966667,-117.193825,"Kane St, San Diego, CA, US",research,True,False,False
362492884,2025-07-08,Peridot Sweat Bee,Augochlorella pomoniella,32.6723702556,-117.244940996,"Point Loma, San Diego, CA, USA",research,True,False,False
362492868,2025-07-08,Peridot Sweat Bee,Augochlorella pomoniella,32.6723702556,-117.244940996,"Point Loma, San Diego, CA, USA",research,True,False,False
362492861,2025-07-08,Peridot Sweat Bee,Augochlorella pomoniella,32.6723702556,-117.244940996,"Point Loma, San Diego, CA, USA",research,True,False,False
362492857,2025-07-08,Peridot Sweat Bee,Augochlorella pomoniella,32.6723702556,-117.244940996,"Point Loma, San Diego, CA, USA",research,True,False,False
362492842,2025-07-08,Peridot Sweat Bee,Augochlorella pomoniella,32.6723702556,-117.244940996,"Point Loma, San Diego, CA, USA",research,True,False,False
362492840,2025-07-08,Peridot Sweat Bee,Augochlorella pomoniella,32.6723702556,-117.244940996,"Point Loma, San Diego, CA, USA",research,True,False,False
362492836,2025-07-08,Peridot Sweat Bee,Augochlorella pomoniella,32.6723702556,-117.244940996,"Point Loma, San Diego, CA, USA",research,True,False,False
362492834,2025-07-08,Peridot Sweat Bee,Augochlorella pomoniella,32.6723702556,-117.244940996,"Point Loma, San Diego, CA, USA",research,True,False,False
362492824,2025-07-08,Peridot Sweat Bee,Augochlorella pomoniella,32.6723702556,-117.244940996,"Point Loma, San Diego, CA, USA",research,True,False,False
362489161,2026-05-17,,Diadasia australis,33.8995366667,-117.941863333,"Horse Trail, Fullerton, CA, US",research,True,False,False
362488428,2026-05-17,,Diadasia australis,33.89928,-117.942383333,"Horse Trail, Fullerton, CA, US",research,True,False,False
362488383,2026-05-17,Western Honey Bee,Apis mellifera,33.89927,-117.942588333,"Horse Trail, Fullerton, CA, US",research,False,True,False
362488241,2026-05-17,,Diadasia australis,33.8994216667,-117.942886667,"N Euclid St, Fullerton, CA, US",research,True,False,False
362487175,2026-05-17,,Diadasia australis,33.8993716667,-117.944046667,"Horse Trail, Fullerton, CA, US",research,True,False,False
362487076,2026-05-17,,Diadasia australis,33.899375,-117.944183333,"Horse Trail, Fullerton, CA, US",research,True,False,False
362486492,2026-05-17,Western Honey Bee,Apis mellifera,33.8992916667,-117.947036667,"Horse Trail, Fullerton, CA, US",research,False,True,False
362485117,2026-05-17,Western Honey Bee,Apis mellifera,33.9007533333,-117.948875,"Fullerton, CA, US",research,False,True,False
362484493,2026-05-17,Yellow-faced Bumble Bee,Bombus vosnesenskii,33.3578133333,-117.231475,"S Stage Coach Ln, Fallbrook, CA, US",research,True,False,False
362476353,2026-05-17,Valley Carpenter Bee,Xylocopa sonorina,34.04879,-116.568989444,"Morongo Valley, CA 92256, USA",research,True,False,False
362473955,2026-05-17,Valley Carpenter Bee,Xylocopa sonorina,34.1185416667,-117.871566667,"S Grand Ave, Glendora, CA, US",research,True,False,False
362472232,2026-05-17,Western Honey Bee,Apis mellifera,34.2843285,-118.870162,"Moorpark, CA, US",research,False,True,False
362466244,2026-05-16,Western Honey Bee,Apis mellifera,33.24663,-117.195433333,"The Havens Country Club, Vista, CA, US",research,False,True,False
362464460,2025-11-21,Fine striped sweat bee,Agapostemon subtilior,32.66882325,-117.244621557,"Point Loma, San Diego, CA, USA",research,True,False,False
362464459,2025-11-21,Peridot Sweat Bee,Augochlorella pomoniella,32.66882325,-117.244621557,"Point Loma, San Diego, CA, USA",research,True,False,False
362458635,2026-05-16,California Bumble Bee,Bombus californicus,33.7260288271,-117.957202866,"California, US",research,True,False,False
362458492,2026-05-16,California Bumble Bee,Bombus californicus,33.6846779025,-117.979399909,"California, US",research,True,False,False
362436906,2026-05-17,Western Honey Bee,Apis mellifera,33.2387078,-117.2706322,"N Santa Fe Av & Champlain St, Oceanside, CA 92056, USA",research,False,True,False
362415183,2026-05-16,Western Honey Bee,Apis mellifera,33.6018366667,-115.90858,"Mecca, CA, US",research,False,True,False
362386040,2026-05-16,Bumblebee-like Digger Bee,Anthophora bomboides,33.0155138833,-116.71128,"Cleveland National Forest, Julian, CA, US",research,True,False,False
362381768,2026-05-16,Western Honey Bee,Apis mellifera,32.64333,-117.023041667,"Rancho del Rey, Chula Vista, CA, US",research,False,True,False
362270841,2026-05-16,Valley Carpenter Bee,Xylocopa sonorina,34.0424195,-118.470588333,"S Carmelina Ave, Los Angeles, CA, US",research,True,False,False
362265881,2026-05-16,Fine striped sweat bee,Agapostemon subtilior,32.755645,-117.240075,"Robb Athletic Field, San Diego, CA, US",research,True,False,False
362264456,2026-05-16,Western Honey Bee,Apis mellifera,34.2709470853,-118.316333252,"Oro Vista Ave, Los Angeles, CA, US",research,False,True,False
362262314,2026-05-16,Crotch's Bumble Bee,Bombus crotchii,35.0102157142,-118.152114572,"Kern County, US-CA, US",research,True,False,True
362262313,2026-05-16,Yellow-faced Bumble Bee,Bombus vosnesenskii,35.12837266,-118.076834224,"Kern County, US-CA, US",research,True,False,False
362262312,2026-05-16,Crotch's Bumble Bee,Bombus crotchii,35.1055111417,-118.06095777,"Kern County, US-CA, US",research,True,False,True
362262310,2026-05-16,Crotch's Bumble Bee,Bombus crotchii,35.1927136392,-118.07853795,"Kern County, US-CA, US",research,True,False,True
362262309,2026-05-16,Crotch's Bumble Bee,Bombus crotchii,35.0997323219,-118.117478628,"Kern County, US-CA, US",research,True,False,True
362262308,2026-05-16,Yellow-faced Bumble Bee,Bombus vosnesenskii,35.1750013517,-118.014032677,"Kern County, US-CA, US",research,True,False,False
362260385,2026-05-16,Horse-fly Carpenter Bee,Xylocopa tabaniformis,32.7639783333,-117.000061111,"Golondrina Dr, La Mesa, CA, US",research,True,False,False
362258461,2026-05-16,Western Honey Bee,Apis mellifera,33.7776216667,-118.096122167,"Harvard Ln, Seal Beach, CA, US",research,False,True,False
362258359,2026-05-16,Western Honey Bee,Apis mellifera,33.3270083333,-118.340041667,"Avalon Canyon Rd at Botanical Gardens, Avalon, CA 90704, USA",research,False,True,False
362256888,2026-05-16,Western Honey Bee,Apis mellifera,33.9812290751,-118.058933116,"West Whittier-Los Nietos, CA 90606, USA",research,False,True,False
362256882,2026-05-05,Western Honey Bee,Apis mellifera,33.9812290751,-118.058933116,"West Whittier-Los Nietos, CA 90606, USA",research,False,True,False
362252675,2026-05-16,Crotch's Bumble Bee,Bombus crotchii,33.96805,-118.438569,"Ballona Wetlands Ecological Reserve, Ca.",research,True,False,True
362252385,2026-05-16,Western Honey Bee,Apis mellifera,32.9408383333,-117.247313333,"Red Ridge Trail, San Diego, CA, US",research,False,True,False
362238863,2026-05-16,Peridot Sweat Bee,Augochlorella pomoniella,32.9779616667,-116.549378333,"California Riding and Hiking Trail, Descanso, CA, US",research,True,False,False
362238119,2026-05-16,Tripartite Sweat Bee,Halictus tripartitus,32.9832083333,-116.54902,"California Riding and Hiking Trail, Descanso, CA, US",research,True,False,False
362237402,2026-04-05,Western Honey Bee,Apis mellifera,34.1145666667,-116.294868056,"Joshua Tree, CA, USA",research,False,True,False
362237199,2026-05-16,Fine striped sweat bee,Agapostemon subtilior,32.9850833333,-116.549661667,"California Riding and Hiking Trail, Descanso, CA, US",research,True,False,False
362232515,2026-05-16,Yellow-faced Bumble Bee,Bombus vosnesenskii,33.8461633333,-118.371238333,"Sara Dr, Torrance, CA, US",research,True,False,False
362227101,2026-05-16,Peridot Sweat Bee,Augochlorella pomoniella,32.8370041307,-117.07438468,"San Diego, CA, USA",research,True,False,False
362222110,2026-05-16,Ligated Furrow Bee,Halictus ligatus,32.6350205864,-117.106369318,"Mid-Bayfront, Chula Vista, CA 91910, USA",research,True,False,False
362222107,2026-05-16,Ligated Furrow Bee,Halictus ligatus,32.6350205864,-117.106369318,"Mid-Bayfront, Chula Vista, CA 91910, USA",research,True,False,False
362222094,2026-05-16,Masked Bees,Hylaeus,32.6323169701,-117.105257177,"Mid-Bayfront, Chula Vista, CA 91910, USA",research,False,False,False
362222074,2026-05-16,Ligated Furrow Bee,Halictus ligatus,32.6351446948,-117.104868164,"Mid-Bayfront, Chula Vista, CA 91910, USA",research,True,False,False
362222068,2026-05-16,Ligated Furrow Bee,Halictus ligatus,32.6374646045,-117.104017497,"Mid-Bayfront, Chula Vista, CA 91910, USA",research,True,False,False
362222059,2026-05-16,Ligated Furrow Bee,Halictus ligatus,32.637431244,-117.104013909,"Mid-Bayfront, Chula Vista, CA 91910, USA",research,True,False,False
362221941,2026-05-16,Yellow-faced Bumble Bee,Bombus vosnesenskii,35.0288514828,-118.021983838,"Kern County, US-CA, US",research,True,False,False
362221897,2026-05-16,Yellow-faced Bumble Bee,Bombus vosnesenskii,34.4578033333,-119.709403333,"Mission Canyon Rd, Santa Barbara, CA, US",research,True,False,False
362219119,2026-02-14,Western Honey Bee,Apis mellifera,33.8288656,-118.3417798,"Madrona Marsh Preserve and Nature Center, 3201 Plaza del Amo, Torrance, CA 90503, USA",research,False,True,False
362205265,2026-05-07,Western Honey Bee,Apis mellifera,34.4941470467,-120.065607727,"Goleta, CA 93117, USA",research,False,True,False
362202705,2026-05-16,Western Honey Bee,Apis mellifera,33.011575,-116.712745,"Eagle Peak Rd, Julian, CA, US",research,False,True,False
362202370,2026-05-16,Western Honey Bee,Apis mellifera,33.0105527833,-116.71353,"Eagle Peak Rd, Julian, CA, US",research,False,True,False
362199343,2026-05-16,Western Honey Bee,Apis mellifera,33.01415,-116.709425,"Julian, CA 92036, USA",research,False,True,False
362195639,2026-05-16,Western Honey Bee,Apis mellifera,34.0734833333,-116.390666667,"Yucca Valley, CA 92284, USA",research,False,True,False
362191478,2026-05-13,Ochraceous Chimney Bee,Diadasia ochracea,34.1777621867,-119.038055797,"Ventura County, CA, USA",research,True,False,False
362191476,2026-05-13,Ochraceous Chimney Bee,Diadasia ochracea,34.1777673446,-119.038081844,"Ventura County, CA, USA",research,True,False,False
362187308,2026-05-16,Western Honey Bee,Apis mellifera,33.6047158283,-116.439046316,"Santa Rosa and San Jacinto Mountains National Monument, Mountain Center, CA, US",research,False,True,False
362181753,2026-05-14,Western Honey Bee,Apis mellifera,34.2081799774,-118.168259355,"N Arroyo Blvd, Pasadena, CA, US",research,False,True,False
362180141,2026-05-16,Western Honey Bee,Apis mellifera,34.392105,-118.883111667,"E Telegraph Rd, Fillmore, CA, US",research,False,True,False
362180002,2026-05-16,Western Honey Bee,Apis mellifera,33.0137583333,-116.70958,"Julian, CA, US",research,False,True,False
362179743,2026-05-16,Western Honey Bee,Apis mellifera,33.01385,-116.709525,"Julian, CA, US",research,False,True,False
362179686,2026-05-16,Western Honey Bee,Apis mellifera,33.4060694444,-117.227258333,"Fallbrook, CA 92028, USA",research,False,True,False
362179408,2026-05-16,Western Honey Bee,Apis mellifera,33.01408055,-116.709463333,"Julian, CA, US",research,False,True,False
362174675,2026-05-16,Western Honey Bee,Apis mellifera,33.0119931255,-116.713406996,"San Diego County, US-CA, US",research,False,True,False
362174218,2026-05-16,Western Honey Bee,Apis mellifera,33.011777986,-116.713232304,"Eagle Peak Rd, Julian, CA, US",research,False,True,False
362172294,2026-05-16,Western Honey Bee,Apis mellifera,32.9679666667,-117.150016667,"Westview High School, San Diego, CA, US",research,False,True,False
362170125,2026-05-15,Western Honey Bee,Apis mellifera,32.7765893747,-116.915085082,"Rancho San Diego, CA, USA",research,False,True,False
362169591,2026-05-16,Fine striped sweat bee,Agapostemon subtilior,32.7022966667,-117.0380555,"Aquamarine Rd, San Diego, CA, US",research,True,False,False
362167773,2026-05-16,Rhus Fairy Bee,Perdita rhois,32.8182566667,-117.010553333,"Santee, CA, USA",research,True,False,False
362167385,2026-05-16,Yellow-faced Bumble Bee,Bombus vosnesenskii,34.3009617229,-118.166612446,"Angeles MRCA Open Space, Los Angeles County, US-CA, US",research,True,False,False
362166141,2026-05-16,Tansy Mustard Sweat Bee,Lasioglossum sisymbrii,33.0142111111,-116.708769444,"Julian, CA 92036, USA",research,True,False,False
362162087,2026-05-16,Crotch's Bumble Bee,Bombus crotchii,33.7219172709,-116.902278311,"Hemet, CA, US",research,True,False,True
362161874,2026-05-16,Western Honey Bee,Apis mellifera,35.1605528333,-120.758796667,"Point San Luis Lighthouse Public Access, San Luis Obispo County, US-CA, US",research,False,True,False
362159944,2026-05-16,Western Honey Bee,Apis mellifera,32.8274333333,-116.866219444,"El Cajon, CA 92021, USA",research,False,True,False
362157706,2026-05-16,Western Honey Bee,Apis mellifera,34.01565555,-118.287628333,"State Dr, Los Angeles, CA, US",research,False,True,False
362157631,2026-05-16,Western Honey Bee,Apis mellifera,34.0176166667,-118.287941667,"Exposition Blvd, Los Angeles, CA, US",research,False,True,False
362157035,2026-05-16,Crotch's Bumble Bee,Bombus crotchii,35.0679388333,-119.978111667,"Santa Margarita, CA, US",research,True,False,True
362146937,2026-05-16,Yellow-faced Bumble Bee,Bombus vosnesenskii,34.4437683296,-118.665826317,"Val Verde, CA 91384, USA",research,True,False,False
362146925,2026-05-16,Yellow-faced Bumble Bee,Bombus vosnesenskii,34.4439778371,-118.66541188,"Val Verde, CA 91384, USA",research,True,False,False
362146139,2026-05-16,California Bumble Bee,Bombus californicus,32.83672,-117.0745695,"Mission Trails Regional Park, San Diego, CA, US",research,True,False,False
362145924,2026-05-16,Yellow-faced Bumble Bee,Bombus vosnesenskii,32.8367366667,-117.074608333,"Mission Trails Regional Park, San Diego, CA, US",research,True,False,False
362141041,2026-05-16,Yellow-faced Bumble Bee,Bombus vosnesenskii,34.5522645104,-118.507716693,"Santa Clarita, CA 91390, USA",research,True,False,False
362136579,2026-05-16,Yellow-faced Bumble Bee,Bombus vosnesenskii,33.56568,-117.764541667,"Laguna Coast Wilderness Park, Laguna Beach, CA, US",research,True,False,False
362136175,2026-05-16,Western Honey Bee,Apis mellifera,34.1103861714,-117.860829318,"E Juanita Ave, Glendora, CA, US",research,False,True,False
362131280,2026-05-16,California Bumble Bee,Bombus californicus,32.8367166667,-117.0745695,"Mission Trails Regional Park, San Diego, CA, US",research,True,False,False
362130708,2026-05-16,Black-tailed Bumble Bee,Bombus melanopygus,33.717983791,-116.894691838,"Fairview Ave, Hemet, CA, US",research,True,False,False
362129964,2026-05-16,California Bumble Bee,Bombus californicus,32.8367216667,-117.074525,"Mission Trails Regional Park, San Diego, CA, US",research,True,False,False
362128757,2026-05-16,Peridot Sweat Bee,Augochlorella pomoniella,32.83667,-117.074586167,"Mission Trails Regional Park, San Diego, CA, US",research,True,False,False
362125685,2026-05-16,Western Honey Bee,Apis mellifera,34.2315139,-118.4467201,"8857 Katherine Ave, Panorama City, CA 91402, USA",research,False,True,False
362123973,2026-05-16,Sonoran Bumble Bee,Bombus sonorus,34.0548138333,-118.272553333,"Esperanza Elementary, Los Angeles, CA, US",research,True,False,True
362118600,2026-05-16,Ochraceous Chimney Bee,Diadasia ochracea,32.64335,-117.023002833,"Chula Vista, CA, US",research,True,False,False
362107044,2026-05-16,Yellow-faced Bumble Bee,Bombus vosnesenskii,32.9298966667,-116.631128333,"Cleveland National Forest, Julian, CA, US",research,True,False,False
362103501,2026-05-16,Yellow-faced Bumble Bee,Bombus vosnesenskii,33.5320667423,-117.710725106,"Orange County, US-CA, US",research,True,False,False
362092742,2026-05-16,Western Honey Bee,Apis mellifera,34.0853567263,-118.317776097,"Hollywood, Los Angeles, CA, US",research,False,True,False
362086784,2026-05-15,Yellow-faced Bumble Bee,Bombus vosnesenskii,33.5800783333,-117.763091667,"Laguna Coast Wilderness Park, Laguna Beach, CA, US",research,True,False,False
362080759,2026-05-16,Valley Carpenter Bee,Xylocopa sonorina,33.8183861494,-118.037687623,"Walker St, Cypress, CA, US",research,True,False,False
362078958,2026-05-16,California Fairy Bee,Perdita californica,32.8440494466,-117.044690004,"Mission Trails Regional Park, San Diego, CA, US",research,True,False,False
362076749,2026-05-16,Tripartite Sweat Bee,Halictus tripartitus,33.9696616667,-118.389603333,"Boeing Ave, Los Angeles, CA, US",research,True,False,False
362072896,2026-05-16,,Diadasia australis,33.89954848,-117.94193917,"Euclid-Laguna, Fullerton, CA 92835, USA",research,True,False,False
362071116,2026-05-16,Western Honey Bee,Apis mellifera,32.8137207031,-117.23374939,San Diego,research,False,True,False
362069045,2026-05-16,Tansy Mustard Sweat Bee,Lasioglossum sisymbrii,33.0441276787,-117.132443041,"San Diego County, US-CA, US",research,True,False,False
362068028,2026-05-16,Western Honey Bee,Apis mellifera,32.7357234997,-117.1432172,"Park Bl & Zoo Pl, San Diego, CA 92104, USA",research,False,True,False
362066682,2026-05-16,Western Honey Bee,Apis mellifera,32.73573613,-117.14321788,"Park Bl & Zoo Pl, San Diego, CA 92104, USA",research,False,True,False
362053711,2026-05-15,Western Honey Bee,Apis mellifera,34.3420642,-116.8409202,"Lucerne Valley, CA 92356, USA",research,False,True,False
362051264,2026-05-15,Western Honey Bee,Apis mellifera,34.3420666,-116.840904,"Lucerne Valley, CA 92356, USA",research,False,True,False
362046882,2026-05-16,Yellow-faced Bumble Bee,Bombus vosnesenskii,35.0440809511,-118.196223126,"Kern County, US-CA, US",research,True,False,False
362030717,2026-05-16,California Fairy Bee,Perdita californica,33.55128,-117.571511667,"San Juan Capistrano, CA, US",research,True,False,False
362030635,2026-05-15,Western Honey Bee,Apis mellifera,32.96323,-117.066699983,"Meadowbrook Ecological Reserve, San Diego, California, United States",research,False,True,False
362030568,2026-05-16,Western Honey Bee,Apis mellifera,33.9695902296,-117.319326438,"University, Riverside, CA 92507, USA",research,False,True,False
362025137,2026-05-16,Western Honey Bee,Apis mellifera,32.8268369275,-117.116457559,"Tierrasanta, San Diego, CA 92124, USA",research,False,True,False
361990581,2026-05-15,Crotch's Bumble Bee,Bombus crotchii,35.516776395,-120.673015813,Home,research,True,False,True
361982031,2026-05-15,Western Honey Bee,Apis mellifera,33.0117869896,-117.270909486,"San Elijo Lagoon Ecological Reserve, Encinitas, CA, US",research,False,True,False
361915611,2026-05-15,Western Honey Bee,Apis mellifera,34.1169416667,-118.157433333,"Mission / Meridian, South Pasadena, CA 91030, USA",research,False,True,False
361915484,2026-05-08,Western Honey Bee,Apis mellifera,33.8851916667,-118.093238889,"Norwalk, CA 90650, USA",research,False,True,False
361910265,2026-05-12,Western Honey Bee,Apis mellifera,34.0660543901,-118.440737164,美国加利福尼亚洛杉矶西木区,research,False,True,False
361909813,2026-05-13,Western Honey Bee,Apis mellifera,33.886564,-118.0991837,"11110 Alondra Blvd, Norwalk, CA 90650, USA",research,False,True,False
361909268,2026-05-15,Tripartite Sweat Bee,Halictus tripartitus,32.746319258,-117.183372974,"Mission Hills, San Diego, CA, USA",research,True,False,False
361902461,2026-05-15,Crotch's Bumble Bee,Bombus crotchii,34.3223033333,-118.871256667,"Moorpark, CA 93021, USA",research,True,False,True
361900912,2026-04-25,Western Honey Bee,Apis mellifera,32.896355,-117.0839305,"Scripps Ranch, San Diego, CA, US",research,False,True,False
361891112,2026-05-15,Crotch's Bumble Bee,Bombus crotchii,33.968117,-118.438439,"Ballona Wetlands Ecological Reserve, Ca.",research,True,False,True
361887309,2016-07-14,Sonoran Bumble Bee,Bombus sonorus,34.0960929362,-118.417499942,"Los Angeles, CA, USA",research,True,False,True
361886948,2026-05-03,Western Honey Bee,Apis mellifera,32.8519444444,-116.97955,"Santee, CA, USA",research,False,True,False
361875704,2026-05-14,Crotch's Bumble Bee,Bombus crotchii,33.719293,-117.7265973,"10860.25 Jeffrey Rd, Irvine, CA 92602, USA",research,True,False,True
361874453,2026-05-07,Yellow-faced Bumble Bee,Bombus vosnesenskii,33.4154778443,-117.61644425,"San Clemente, CA, USA",research,True,False,False
361874077,2026-05-15,Western Honey Bee,Apis mellifera,33.5315959685,-117.708317683,"Laguna Niguel, CA, USA",research,False,True,False
361873734,2026-05-15,Western Honey Bee,Apis mellifera,33.5315256135,-117.708358889,"Laguna Niguel, CA, USA",research,False,True,False
361873632,2026-05-15,Crotch's Bumble Bee,Bombus crotchii,34.4433319482,-118.669992372,"Los Angeles County, CA, USA",research,True,False,True
361873607,2026-05-15,California Bumble Bee,Bombus californicus,34.4428865992,-118.671635166,"Los Angeles County, CA, USA",research,True,False,False
361873545,2026-05-15,Crotch's Bumble Bee,Bombus crotchii,34.73958,-120.01485555,"Santa Ynez, CA, US",research,True,False,True
361873519,2026-05-15,Yellow-faced Bumble Bee,Bombus vosnesenskii,34.4414911671,-118.669822082,"Los Angeles County, CA, USA",research,True,False,False
361870058,2026-05-12,Western Honey Bee,Apis mellifera,34.1579638333,-118.325888333,"W Alameda Ave, Burbank, CA, US",research,False,True,False
361869227,2026-05-15,Western Honey Bee,Apis mellifera,33.2385583333,-117.263791667,"N Santa Fe Av & Darwin Dr, Oceanside, CA 92056, USA",research,False,True,False
361868760,2026-05-15,Western Honey Bee,Apis mellifera,33.531599283,-117.708222603,"Laguna Niguel, CA, USA",research,False,True,False
361868525,2026-05-15,Western Honey Bee,Apis mellifera,33.5317194996,-117.708222226,"Laguna Niguel, CA, USA",research,False,True,False
361867172,2026-05-11,Valley Carpenter Bee,Xylocopa sonorina,34.2798116667,-119.2985,"E Main St, Ventura, CA, US",research,True,False,False
361864749,2026-05-15,Western Honey Bee,Apis mellifera,33.604822315,-116.439220146,"Santa Rosa and San Jacinto Mountains National Monument, Mountain Center, CA, US",research,False,True,False
361864341,2026-05-15,Valley Carpenter Bee,Xylocopa sonorina,33.9085250309,-117.994366027,"Los Angeles County, US-CA, US",research,True,False,False
361864238,2026-04-19,Western Honey Bee,Apis mellifera,32.8200564021,-117.053560926,"Lake Murray, San Diego, CA, USA",research,False,True,False
361862464,2026-05-15,Ochraceous Chimney Bee,Diadasia ochracea,33.3947666667,-118.395783333,"Santa Catalina Island, Avalon, CA, US",research,True,False,False
361860759,2026-05-15,Western Honey Bee,Apis mellifera,33.531605031,-117.707844613,"Laguna Niguel, CA, USA",research,False,True,False
361860660,2026-05-15,Western Honey Bee,Apis mellifera,33.4816383333,-117.138816667,"E Vallejo Ave, Temecula, CA, US",research,False,True,False
361860234,2026-04-19,Yellow-faced Bumble Bee,Bombus vosnesenskii,32.5548298055,-117.087504255,"Tijuana River Valley, San Diego, CA, USA",research,True,False,False
361846038,2026-04-23,Western Honey Bee,Apis mellifera,32.9392532405,-117.247018622,"Del Mar Heights, San Diego, CA 92014, USA",research,False,True,False
361845630,2026-04-24,Western Honey Bee,Apis mellifera,33.8859116667,-118.096497167,"Cerritos, CA, US",research,False,True,False
361830508,2026-05-15,Crotch's Bumble Bee,Bombus crotchii,35.487545,-118.091775,"Weldon, CA, US",research,True,False,True
361828759,2026-05-15,Yellow-faced Bumble Bee,Bombus vosnesenskii,33.5003002274,-117.320140611,"Murrieta, CA, US",research,True,False,False
361825852,2026-05-14,Valley Carpenter Bee,Xylocopa sonorina,34.2315848626,-118.446505523,"Panorama City, Los Angeles, CA, USA",research,True,False,False
361824938,2026-05-15,Western Honey Bee,Apis mellifera,32.6770489665,-117.24285796,"Point Loma, San Diego, CA, USA",research,False,True,False
361821499,2025-05-06,Honey-tailed Striped Sweat Bee,Agapostemon melliventris,32.6710207308,-117.244824282,"Point Loma, San Diego, CA, USA",research,True,False,False
361821486,2025-05-06,Fine striped sweat bee,Agapostemon subtilior,32.6710207308,-117.244824282,"Point Loma, San Diego, CA, USA",research,True,False,False
361821466,2025-05-06,Southwestern Shortface,Dufourea australis,32.6710207308,-117.244824282,"Point Loma, San Diego, CA, USA",research,False,False,False
361821464,2025-05-06,Peridot Sweat Bee,Augochlorella pomoniella,32.6710207308,-117.244824282,"Point Loma, San Diego, CA, USA",research,True,False,False
361821455,2025-05-06,Peridot Sweat Bee,Augochlorella pomoniella,32.6710207308,-117.244824282,"Point Loma, San Diego, CA, USA",research,True,False,False
361821435,2025-05-06,California Bumble Bee,Bombus californicus,32.6710207308,-117.244824282,"Point Loma, San Diego, CA, USA",research,True,False,False
361821434,2025-05-06,Honey-tailed Striped Sweat Bee,Agapostemon melliventris,32.6710207308,-117.244824282,"Point Loma, San Diego, CA, USA",research,True,False,False
361821430,2025-05-06,Honey-tailed Striped Sweat Bee,Agapostemon melliventris,32.6710207308,-117.244824282,"Point Loma, San Diego, CA, USA",research,True,False,False
361821425,2025-05-06,Peridot Sweat Bee,Augochlorella pomoniella,32.6710207308,-117.244824282,"Point Loma, San Diego, CA, USA",research,True,False,False
361821419,2025-05-06,Peridot Sweat Bee,Augochlorella pomoniella,32.6710207308,-117.244824282,"Point Loma, San Diego, CA, USA",research,True,False,False
361821411,2025-05-06,Fine striped sweat bee,Agapostemon subtilior,32.6710207308,-117.244824282,"Point Loma, San Diego, CA, USA",research,True,False,False
361821409,2025-05-06,Fine striped sweat bee,Agapostemon subtilior,32.6710207308,-117.244824282,"Point Loma, San Diego, CA, USA",research,True,False,False
361821404,2025-05-06,Peridot Sweat Bee,Augochlorella pomoniella,32.6710207308,-117.244824282,"Point Loma, San Diego, CA, USA",research,True,False,False
361821402,2025-05-06,Ligated Furrow Bee,Halictus ligatus,32.6710207308,-117.244824282,"Point Loma, San Diego, CA, USA",research,True,False,False
361821397,2025-05-06,Fine striped sweat bee,Agapostemon subtilior,32.6710207308,-117.244824282,"Point Loma, San Diego, CA, USA",research,True,False,False
361821391,2025-05-06,Honey-tailed Striped Sweat Bee,Agapostemon melliventris,32.6710207308,-117.244824282,"Point Loma, San Diego, CA, USA",research,True,False,False
361821377,2025-05-06,Ligated Furrow Bee,Halictus ligatus,32.6710207308,-117.244824282,"Point Loma, San Diego, CA, USA",research,True,False,False
361821376,2025-05-06,Peridot Sweat Bee,Augochlorella pomoniella,32.6710207308,-117.244824282,"Point Loma, San Diego, CA, USA",research,True,False,False
361821366,2025-05-06,Fine striped sweat bee,Agapostemon subtilior,32.669363424,-117.244859346,"Point Loma, San Diego, CA, USA",research,True,False,False
361821361,2025-05-06,Fine striped sweat bee,Agapostemon subtilior,32.669363424,-117.244859346,"Point Loma, San Diego, CA, USA",research,True,False,False
361821329,2025-05-06,Fine striped sweat bee,Agapostemon subtilior,32.6710207308,-117.244824282,"Point Loma, San Diego, CA, USA",research,True,False,False
361812955,2026-05-14,Western Honey Bee,Apis mellifera,33.0343695,-117.272766667,"Windsor Rd, Encinitas, CA, US",research,False,True,False
361812078,2026-05-15,Western Honey Bee,Apis mellifera,34.0447305,-118.173063333,"N Sydney Dr, Los Angeles, CA, US",research,False,True,False
361809237,2026-05-15,Yellow-faced Bumble Bee,Bombus vosnesenskii,34.4214452695,-119.879116253,"Wavecrest Ct, Goleta, CA, US",research,True,False,False
361808917,2026-05-15,Western Honey Bee,Apis mellifera,34.2534625543,-118.748014535,"Ashford St, Simi Valley, CA, US",research,False,True,False
361806831,2026-05-14,Western Honey Bee,Apis mellifera,33.7617333333,-118.309875,"Eastview Park, Rancho Palos Verdes, CA, US",research,False,True,False
361790543,2026-05-15,California Bumble Bee,Bombus californicus,33.5179466667,-117.753546667,"Driftwood Dr, Laguna Beach, CA, US",research,True,False,False
361785936,2026-05-15,Western Honey Bee,Apis mellifera,33.6899833333,-118.003533333,"Ashford Ln, Huntington Beach, CA, US",research,False,True,False
361785436,2026-05-15,Western Honey Bee,Apis mellifera,33.9703749,-117.3187506,"University, Riverside, CA 92507, USA",research,False,True,False
361782980,2026-05-15,Yellow-faced Bumble Bee,Bombus vosnesenskii,33.0752956995,-117.283437251,"San Diego County, US-CA, US",research,True,False,False
361779566,2026-05-12,Crotch's Bumble Bee,Bombus crotchii,34.3071339696,-118.717357358,"Simi Valley, CA, US",research,True,False,True
361777892,2026-05-12,Valley Carpenter Bee,Xylocopa sonorina,34.0960929362,-118.417499942,"Los Angeles, CA, USA",research,True,False,False
361767747,2026-05-15,Yellow-faced Bumble Bee,Bombus vosnesenskii,32.803196329,-117.223053234,"Fogg St, San Diego, CA, US",research,True,False,False
361763862,2026-05-15,Western Honey Bee,Apis mellifera,33.6415882746,-117.843289263,"Orange County, US-CA, US",research,False,True,False
361760153,2026-05-15,Valley Carpenter Bee,Xylocopa sonorina,32.6651870088,-117.086263161,"National City, CA, USA",research,True,False,False
361758995,2026-05-15,Western Honey Bee,Apis mellifera,33.5453982272,-117.719623383,"Drakes Bay, Laguna Niguel, CA, US",research,False,True,False
361742227,2026-03-10,Western Honey Bee,Apis mellifera,34.2875306383,-119.225426923,"Day Rd, Ventura, CA, US",research,False,True,False
361739622,2026-05-15,Western Honey Bee,Apis mellifera,33.6048082645,-116.4393155,"Santa Rosa and San Jacinto Mountains National Monument, Mountain Center, CA, US",research,False,True,False
361683683,2026-05-14,California Bumble Bee,Bombus californicus,34.0590166667,-118.617461667,"Tuna Canyon Main Entrance Trail, Topanga, CA, US",research,True,False,False
361630277,2026-04-13,Western Honey Bee,Apis mellifera,33.8854274933,-118.092993141,"Norwalk, CA, US",research,False,True,False
361624722,2026-05-09,Western Honey Bee,Apis mellifera,34.005786,-117.9806702,"Hacienda Heights, CA, USA",research,False,True,False
361623355,2026-05-08,Western Honey Bee,Apis mellifera,33.9198116667,-117.699013333,"Chino Hills, CA, USA",research,False,True,False
361623347,2026-05-08,Western Honey Bee,Apis mellifera,33.920845,-117.701431667,"Chino Hills, CA, USA",research,False,True,False
361623341,2026-05-08,Western Honey Bee,Apis mellifera,33.9209183333,-117.701416667,"Chino Hills, CA, USA",research,False,True,False
361623338,2026-05-08,Western Honey Bee,Apis mellifera,33.9210083333,-117.701438333,"Chino Hills, CA, USA",research,False,True,False
361622393,2026-03-26,Valley Carpenter Bee,Xylocopa sonorina,33.88578,-118.096008333,"Cerritos, CA, US",research,True,False,False
361622304,2026-04-09,Western Honey Bee,Apis mellifera,33.88755,-118.0978305,"Alondra Blvd, Norwalk, CA, US",research,False,True,False
361612412,2026-05-10,Western Honey Bee,Apis mellifera,33.8070365896,-118.079525579,"Coyote Creek, Los Alamitos, CA, US",research,False,True,False
361609449,2026-05-12,Yellow-faced Bumble Bee,Bombus vosnesenskii,34.208755,-118.932433333,"Thousand Oaks, CA, US",research,True,False,False
361605027,2026-05-14,Western Honey Bee,Apis mellifera,34.0356687617,-118.448802948,"S Barrington Ave, Los Angeles, CA, US",research,False,True,False
361603277,2026-05-14,Yellow-faced Bumble Bee,Bombus vosnesenskii,32.9386916667,-117.250938333,"Del Mar Heights, San Diego, CA 92014, USA",research,True,False,False
361603271,2026-05-14,Yellow-faced Bumble Bee,Bombus vosnesenskii,32.9386916667,-117.250938333,"Del Mar Heights, San Diego, CA 92014, USA",research,True,False,False
361603253,2026-05-14,Fine striped sweat bee,Agapostemon subtilior,32.9386916667,-117.250938333,"Del Mar Heights, San Diego, CA 92014, USA",research,True,False,False
361603242,2026-05-14,,Perdita hirticeps,32.9378933333,-117.251241667,"Del Mar Heights, San Diego, CA 92014, USA",research,True,False,False
361603238,2026-05-14,Yellow-faced Bumble Bee,Bombus vosnesenskii,32.9378933333,-117.251241667,"Del Mar Heights, San Diego, CA 92014, USA",research,True,False,False
361602948,2026-01-16,Black-tailed Bumble Bee,Bombus melanopygus,32.9271807738,-117.218643099,"Carmel Valley, San Diego, CA, USA",research,True,False,False
361602947,2026-01-16,Yellow-faced Bumble Bee,Bombus vosnesenskii,32.9271807738,-117.218643099,"Carmel Valley, San Diego, CA, USA",research,True,False,False
361599898,2026-05-14,Western Honey Bee,Apis mellifera,32.7664548732,-117.072072029,"College West, San Diego, CA, USA",research,False,True,False
361592695,2026-05-14,Crotch's Bumble Bee,Bombus crotchii,34.2208,-118.8084,"Lang Ranch, Thousand Oaks, CA, US",research,True,False,True
361590572,2026-05-14,Western Honey Bee,Apis mellifera,33.9021641517,-117.945008688,"Fullerton, CA 92835, USA",research,False,True,False
361587878,2026-05-14,Van Dyke's Bumble Bee,Bombus vandykei,34.4233796997,-117.4247114,"Oak Hills, CA, USA",research,True,False,False
361581798,2026-05-14,Crotch's Bumble Bee,Bombus crotchii,34.057100475,-117.826194469,"University Dr, Pomona, CA, US",research,True,False,True
361576747,2026-05-06,Western Honey Bee,Apis mellifera,34.0561019107,-117.82228409,"Eucalyptus Ln, Pomona, CA, US",research,False,True,False
361575040,2026-05-01,Western Honey Bee,Apis mellifera,34.0573805556,-117.824858333,"Walnut Islands, CA, USA",research,False,True,False
361574537,2026-05-14,Western Honey Bee,Apis mellifera,34.0480237004,-117.815342135,"Poly Vis, Pomona, CA, US",research,False,True,False
361570989,2026-05-14,,Perdita hirticeps,32.9396283333,-117.253136667,"Mar Scenic Trail, San Diego, CA, US",research,True,False,False
361552593,2026-05-14,Western Honey Bee,Apis mellifera,34.1093111111,-118.154547222,"South Pasadena, CA 91030, USA",research,False,True,False
361550871,2026-05-14,Western Honey Bee,Apis mellifera,34.0751655835,-118.440318296,"Charles E Young Dr E, Los Angeles, CA, US",research,False,True,False
361548963,2026-05-02,,Pyrobombus,34.4427492222,-119.272137098,"Ojai Meadows Preserve, 1601 Maricopa Hwy, Ojai, CA 93023, USA",research,False,False,False
361547525,2026-05-14,Western Honey Bee,Apis mellifera,34.1269416667,-118.114266667,"San Marino, CA, US",research,False,True,False
361547255,2026-01-27,All-dark Miner,Andrena perimelas,32.6680642997,-117.2438906,"San Diego, CA 92106, USA",research,False,False,False
361540032,2026-05-14,Arizona Small carpenter,Ceratina arizonensis,32.7180444444,-116.888252778,"Jamul, CA, USA",research,False,False,False
361540007,2026-05-14,Arizona Small carpenter,Ceratina arizonensis,32.7180444444,-116.888252778,"Jamul, CA, USA",research,False,False,False
361538909,2026-05-13,Yellow-faced Bumble Bee,Bombus vosnesenskii,32.9390305556,-117.252302778,"Del Mar Heights, San Diego, CA 92014, USA",research,True,False,False
361536973,2026-05-13,Yellow-faced Bumble Bee,Bombus vosnesenskii,32.9394,-117.251883333,"Del Mar Heights, San Diego, CA 92014, USA",research,True,False,False
361535622,2026-05-13,Western Honey Bee,Apis mellifera,32.9430583333,-117.251602778,"Del Mar Heights, San Diego, CA 92014, USA",research,False,True,False
361534846,2026-05-14,California Bumble Bee,Bombus californicus,33.7189308,-117.7245751,"Portola Springs, Irvine, CA, USA",research,True,False,False
361531145,2026-05-14,California Bumble Bee,Bombus californicus,34.1780038729,-118.474381811,"Woodley, Los Angeles, CA, USA",research,True,False,False
361526182,2026-05-13,Sonoran Bumble Bee,Bombus sonorus,33.9746680765,-118.277765303,"Los Angeles County, US-CA, US",research,True,False,True
361520965,2026-05-12,Western Honey Bee,Apis mellifera,33.8984865104,-117.507361214,"Corona, CA, USA",research,False,True,False
361517586,2026-05-14,Yellow-faced Bumble Bee,Bombus vosnesenskii,32.9433827432,-117.12037063,"Rancho Peñasquitos, San Diego, CA, USA",research,True,False,False
361481427,2026-05-13,Ochraceous Chimney Bee,Diadasia ochracea,32.9114916667,-117.236855,"Flintkote Ave, San Diego, CA, US",research,True,False,False
361478844,2026-05-14,Western Honey Bee,Apis mellifera,34.3961113284,-119.528595204,"Carpinteria Salt Marsh Nature Park trail, Carpinteria, CA, US",research,False,True,False
361477860,2026-05-14,Western Honey Bee,Apis mellifera,34.3959593221,-119.529334111,"Avenue del Mar, Carpinteria, CA, US",research,False,True,False
361475825,2026-05-13,Yellow-faced Bumble Bee,Bombus vosnesenskii,32.91592,-117.24212,"Marsh Trail, San Diego, CA, US",research,True,False,False
361475625,2026-05-14,Fine striped sweat bee,Agapostemon subtilior,33.6896254282,-117.721524585,"Irvine, CA, US",research,True,False,False
361473073,2026-05-06,Western Honey Bee,Apis mellifera,34.0969954778,-118.172613679,"Northeast Los Angeles, Los Angeles, CA, USA",research,False,True,False
361469357,2026-05-06,Yellow-faced Bumble Bee,Bombus vosnesenskii,34.0572766973,-117.825853573,"Walnut Islands, CA, USA",research,True,False,False
361466652,2026-05-01,Yellow-faced Bumble Bee,Bombus vosnesenskii,33.5800786,-117.8050864,"Crystal Cove State Park, California, USA",research,True,False,False
361460511,2026-05-14,Western Honey Bee,Apis mellifera,34.2734069824,-118.79095459,Simi Valley,research,False,True,False
361460231,2026-05-14,California Bumble Bee,Bombus californicus,34.1494166667,-117.414978333,"North Rialto, Rialto, CA, US",research,True,False,False
361447104,2026-05-14,Western Honey Bee,Apis mellifera,32.6718706468,-117.241180586,"Cabrillo National Monument, San Diego, CA, US",research,False,True,False
361439743,2026-05-13,Western Honey Bee,Apis mellifera,34.0576821617,-117.045633159,"Yucaipa, CA, USA",research,False,True,False
361439728,2026-05-13,Western Honey Bee,Apis mellifera,34.0576821617,-117.045633159,"Yucaipa, CA, USA",research,False,True,False
361439700,2026-05-13,Western Honey Bee,Apis mellifera,34.0576821617,-117.045633159,"Yucaipa, CA, USA",research,False,True,False
361426973,2025-07-14,Yellow-faced Bumble Bee,Bombus vosnesenskii,32.812405,-117.122758333,"Calle Fortunada, San Diego, CA, US",research,True,False,False
361426909,2025-07-19,Western Honey Bee,Apis mellifera,32.8510569424,-117.035236673,Mission Trails Regional Park current and future boundaries,research,False,True,False
361426789,2025-05-26,Yellow-faced Bumble Bee,Bombus vosnesenskii,32.8395916667,-117.24585,"Soledad Park Rd, San Diego, CA, US",research,True,False,False
361355381,2026-05-13,Western Honey Bee,Apis mellifera,33.0167364,-117.1115111,"4S Ranch, San Diego, CA 92127, USA",research,False,True,False
361354686,2026-05-13,Western Honey Bee,Apis mellifera,32.9935833333,-117.0946195,"Linares St, San Diego, CA, US",research,False,True,False
361349081,2026-05-08,Western Honey Bee,Apis mellifera,33.9372591495,-117.698856213,"Chino Hills, CA, USA",research,False,True,False
361349062,2026-05-08,Western Honey Bee,Apis mellifera,33.9375594862,-117.698896706,"Chino Hills, CA, USA",research,False,True,False
